$GPRMC,062449.00,A,3956.9939738,N,11619.9679574,E,2.24,91.30,070422,,,D*6C
$GPGGA,062449.00,3956.9939738,N,11619.9679574,E,4,19,0.9,43.342,M,0.000,M,57.0,9014*71
$GPGSA,A,3,14,17,30,1,21,8,7,,,,,,1.49,0.93,0.54*38
$BDGSA,A,3,152,150,174,164,184,147,180,175,165,,,,1.49,0.93,0.54*20
$GAGSA,A,3,24,12,33,,,,,,,,,,1.49,0.93,0.54*11
$GPGSV,2,1,7,1,77,109,50,7,34,202,30,8,28,68,44,14,54,313,44*4B
$GPGSV,2,2,7,17,31,270,45,21,48,52,49,30,46,233,39*42
$GLGSV,2,1,5,46,,,26,52,,,,54,41,31,48,55,72,291,51*63
$GLGSV,2,2,5,56,,,*53
$BDGSV,4,1,13,147,82,11,48,148,30,180,25,150,71,315,46,151,19,244,26*57
$BDGSV,4,2,13,152,68,271,47,164,66,219,50,165,33,310,30,166,29,165,30*67
$BDGSV,4,3,13,174,39,252,45,175,25,55,41,178,41,174,30,180,70,45,49*68
$BDGSV,4,4,13,184,76,10,50*52
$GAGSV,2,1,6,11,,,,12,83,168,44,24,77,315,49,25,20,313,22*62
$GAGSV,2,2,6,31,51,131,26,33,38,45,39*6F
$GPRMC,062450.00,A,3956.9940795,N,11619.9687645,E,2.18,79.69,070422,,,D*68
$GPGGA,062450.00,3956.9940795,N,11619.9687645,E,4,20,1.0,43.288,M,0.000,M,58.0,9014*7A
$GPGSA,A,3,30,17,1,8,14,21,7,,,,,,1.58,1.04,0.63*33
$GLGSA,A,3,54,55,,,,,,,,,,,1.58,1.04,0.63*13
$BDGSA,A,3,164,174,152,150,147,184,180,175,,,,,1.58,1.04,0.63*19
$GAGSA,A,3,12,24,33,,,,,,,,,,1.58,1.04,0.63*1A
$GPGSV,2,1,7,1,77,109,51,7,34,202,32,8,28,68,42,14,54,313,47*4D
$GPGSV,2,2,7,17,31,270,45,21,48,52,50,30,46,233,38*4B
$GLGSV,2,1,5,46,,,26,52,,,,54,41,31,49,55,72,291,51*62
$GLGSV,2,2,5,56,32,237,21*67
$BDGSV,4,1,13,147,82,11,48,148,30,180,26,150,71,315,46,151,19,244,24*56
$BDGSV,4,2,13,152,68,271,47,164,66,219,50,165,33,310,32,166,29,165,31*64
$BDGSV,4,3,13,174,39,252,44,175,25,55,44,178,41,174,31,180,70,45,50*65
$BDGSV,4,4,13,184,76,10,51*53
$GAGSV,2,1,6,11,,,,12,83,168,43,24,77,315,49,25,20,313,24*63
$GAGSV,2,2,6,31,,,,33,38,45,42*50
$GPRMC,062451.00,A,3956.9942008,N,11619.9695499,E,2.31,80.99,070422,,,D*6A
$GPGGA,062451.00,3956.9942008,N,11619.9695499,E,4,21,0.9,43.384,M,0.000,M,59.0,9014*7F
$GPGSA,A,3,1,14,21,30,17,8,7,,,,,,1.49,0.90,0.57*38
$GLGSA,A,3,55,54,52,,,,,,,,,,1.49,0.90,0.57*1F
$BDGSA,A,3,184,152,150,147,164,180,174,175,,,,,1.49,0.90,0.57*12
$GAGSA,A,3,24,12,33,,,,,,,,,,1.49,0.90,0.57*11
$GPGSV,2,1,7,1,77,109,50,7,34,202,31,8,28,68,41,14,54,313,48*43
$GPGSV,2,2,7,17,31,270,44,21,48,52,50,30,46,233,39*4B
$GLGSV,2,1,5,46,,,27,52,52,159,38,54,41,31,51,55,72,291,52*58
$GLGSV,2,2,5,56,32,237,24*62
$BDGSV,4,1,13,147,82,11,48,148,30,180,26,150,71,315,46,151,19,244,30*53
$BDGSV,4,2,13,152,68,271,47,164,66,219,50,165,,,,166,29,165,29*5E
$BDGSV,4,3,13,174,39,252,46,175,25,55,43,178,41,174,27,180,70,45,50*67
$BDGSV,4,4,13,184,76,10,51*53
$GAGSV,2,1,6,11,29,216,22,12,83,168,43,24,77,315,48,25,20,313,26*5E
$GAGSV,2,2,6,31,,,,33,38,45,40*52
$GPRMC,062452.00,A,3956.9943774,N,11619.9703689,E,2.52,78.71,070422,,,D*6D
$GPGGA,062452.00,3956.9943774,N,11619.9703689,E,4,22,0.8,43.435,M,0.000,M,60.0,9014*79
$GPGSA,A,3,8,30,1,21,14,17,7,,,,,,1.40,0.81,0.51*37
$GLGSA,A,3,54,55,52,,,,,,,,,,1.40,0.81,0.51*10
$BDGSA,A,3,164,152,180,147,184,150,174,175,165,,,,1.40,0.81,0.51*2F
$GAGSA,A,3,33,12,24,,,,,,,,,,1.40,0.81,0.51*1E
$GPGSV,2,1,7,1,77,109,50,7,34,202,32,8,28,68,42,14,54,313,46*4D
$GPGSV,2,2,7,17,31,270,44,21,48,52,48,30,46,233,38*43
$GLGSV,2,1,5,46,,,25,52,52,159,35,54,41,31,47,55,72,291,51*53
$GLGSV,2,2,5,56,32,237,23*65
$BDGSV,4,1,13,147,82,11,48,148,30,180,25,150,71,315,47,151,19,244,31*50
$BDGSV,4,2,13,152,68,271,47,164,66,219,50,165,33,310,29,166,29,165,30*6F
$BDGSV,4,3,13,174,39,252,47,175,25,55,43,178,41,174,32,180,70,45,49*6A
$BDGSV,4,4,13,184,76,10,51*53
$GAGSV,2,1,6,11,29,216,25,12,83,168,43,24,77,315,49,25,20,313,24*5A
$GAGSV,2,2,6,31,51,131,29,33,38,45,39*60
$GPRMC,062453.00,A,3956.9944273,N,11619.9716669,E,2.64,76.90,070422,,,A*62
$GPGGA,062453.00,3956.9944273,N,11619.9716669,E,1,21,0.9,43.522,M,0.000,M,61.0,0000*7A
$GPGSA,A,3,1,14,21,30,17,8,,,,,,,1.54,0.92,0.51*07
$GLGSA,A,3,55,54,52,,,,,,,,,,1.54,0.92,0.51*17
$BDGSA,A,3,152,184,150,164,180,147,174,175,165,,,,1.54,0.92,0.51*28
$GAGSA,A,3,24,12,33,,,,,,,,,,1.54,0.92,0.51*19
$GPGSV,2,1,7,1,77,109,50,7,,,,8,28,68,41,14,54,313,45*7B
$GPGSV,2,2,7,17,31,270,45,21,48,52,48,30,46,233,40*4D
$GLGSV,2,1,5,46,,,27,52,52,159,36,54,41,31,45,55,72,291,51*50
$GLGSV,2,2,5,56,32,237,23*65
$BDGSV,4,1,13,147,82,11,48,148,30,180,25,150,71,315,47,151,19,244,28*58
$BDGSV,4,2,13,152,68,271,47,164,66,219,51,165,33,310,30,166,29,165,32*64
$BDGSV,4,3,13,174,39,252,47,175,25,55,43,178,41,174,31,180,70,45,49*69
$BDGSV,4,4,13,184,76,10,51*53
$GAGSV,2,1,6,11,29,216,25,12,83,168,43,24,77,315,48,25,20,313,23*5C
$GAGSV,2,2,6,31,51,131,26,33,38,45,32*64
$GPRMC,062454.00,A,3956.9946267,N,11619.9724597,E,2.61,69.66,070422,,,A*63
$GPGGA,062454.00,3956.9946267,N,11619.9724597,E,1,21,0.9,43.512,M,0.000,M,62.0,0000*79
$GPGSA,A,3,1,21,14,17,8,30,,,,,,,1.54,0.92,0.51*07
$GLGSA,A,3,55,54,52,,,,,,,,,,1.54,0.92,0.51*17
$BDGSA,A,3,152,184,150,180,147,164,174,175,165,,,,1.54,0.92,0.51*28
$GAGSA,A,3,12,24,33,,,,,,,,,,1.54,0.92,0.51*19
$GPGSV,2,1,7,1,77,109,50,7,34,202,29,8,28,68,42,14,54,313,47*46
$GPGSV,2,2,7,17,31,270,46,21,48,52,47,30,46,233,41*40
$GLGSV,2,1,5,46,,,25,52,52,159,36,54,41,31,46,55,72,291,51*51
$GLGSV,2,2,5,56,,,*53
$BDGSV,4,1,13,147,82,11,48,148,30,180,23,150,71,315,47,151,19,244,29*5F
$BDGSV,4,2,13,152,68,271,48,164,66,219,50,165,33,310,32,166,29,165,27*6C
$BDGSV,4,3,13,174,39,252,47,175,25,55,43,178,41,174,30,180,70,45,49*68
$BDGSV,4,4,13,184,76,10,51*53
$GAGSV,2,1,6,11,29,216,24,12,83,168,44,24,77,315,48,25,20,313,23*5A
$GAGSV,2,2,6,31,,,,33,38,45,38*5D
$GPRMC,062455.00,A,3956.9948253,N,11619.9732430,E,2.68,72.41,070422,,,A*66
$GPGGA,062455.00,3956.9948253,N,11619.9732430,E,1,20,1.0,43.438,M,0.000,M,63.0,0000*7B
$GPGSA,A,3,8,21,30,1,14,17,,,,,,,1.62,1.01,0.58*00
$GLGSA,A,3,52,54,55,,,,,,,,,,1.62,1.01,0.58*10
$BDGSA,A,3,180,184,147,150,152,164,174,175,,,,,1.62,1.01,0.58*1D
$GAGSA,A,3,33,24,12,,,,,,,,,,1.62,1.01,0.58*1E
$GPGSV,2,1,7,1,77,109,50,7,34,202,27,8,28,68,43,14,54,313,46*48
$GPGSV,2,2,7,17,31,270,45,21,48,52,49,30,46,233,41*4D
$GLGSV,2,1,5,46,,,27,52,52,159,38,54,41,31,46,55,72,291,51*5D
$GLGSV,2,2,5,56,,,*53
$BDGSV,4,1,13,147,82,11,48,148,30,180,23,150,71,315,47,151,,,*6E
$BDGSV,4,2,13,152,68,271,48,164,66,219,51,165,33,310,30,166,29,165,30*69
$BDGSV,4,3,13,174,39,252,48,175,25,55,43,178,41,174,30,180,70,45,49*67
$BDGSV,4,4,13,184,76,10,51*53
$GAGSV,2,1,6,11,29,216,28,12,83,168,44,24,77,315,49,25,,,*65
$GAGSV,2,2,6,31,,,,33,38,45,41*53
$GPRMC,062456.00,A,3956.9949849,N,11619.9740645,E,2.73,72.07,070422,,,A*68
$GPGGA,062456.00,3956.9949849,N,11619.9740645,E,1,21,0.8,43.312,M,0.000,M,64.0,0000*7D
$GPGSA,A,3,1,14,21,30,8,17,,,,,,,1.35,0.76,0.50*0B
$GLGSA,A,3,55,54,52,,,,,,,,,,1.35,0.76,0.50*1B
$BDGSA,A,3,152,184,147,180,164,150,174,175,166,,,,1.35,0.76,0.50*27
$GAGSA,A,3,12,24,33,,,,,,,,,,1.35,0.76,0.50*15
$GPGSV,2,1,8,1,77,109,51,7,34,202,29,8,28,68,42,14,54,313,45*4A
$GPGSV,2,2,8,17,31,270,46,19,11,261,22,21,48,52,48,30,46,233,40*7C
$GLGSV,1,1,4,46,,,26,52,52,159,40,54,41,31,43,55,72,291,52*57
$BDGSV,4,1,13,147,82,11,48,148,30,180,23,150,71,315,46,151,,,*6F
$BDGSV,4,2,13,152,68,271,48,164,66,219,50,165,33,310,30,166,29,165,35*6D
$BDGSV,4,3,13,174,39,252,48,175,25,55,41,178,41,174,30,180,70,45,49*65
$BDGSV,4,4,13,184,76,10,51*53
$GAGSV,2,1,6,11,29,216,28,12,83,168,44,24,77,315,49,25,,,*65
$GAGSV,2,2,6,31,,,,33,38,45,43*51
$GPRMC,062457.00,A,3956.9951574,N,11619.9748406,E,2.13,66.29,070422,,,A*61
$GPGGA,062457.00,3956.9951574,N,11619.9748406,E,1,21,0.8,43.255,M,0.000,M,65.0,0000*78
$GPGSA,A,3,1,14,21,30,8,17,,,,,,,1.35,0.76,0.50*0B
$GLGSA,A,3,55,54,52,,,,,,,,,,1.35,0.76,0.50*1B
$BDGSA,A,3,184,152,180,147,164,150,174,175,166,,,,1.35,0.76,0.50*27
$GAGSA,A,3,12,24,33,,,,,,,,,,1.35,0.76,0.50*15
$GPGSV,2,1,7,1,77,109,51,7,34,202,29,8,28,68,43,14,54,313,45*44
$GPGSV,2,2,7,17,31,270,44,21,48,52,49,30,46,233,39*43
$GLGSV,1,1,4,46,,,27,52,52,159,38,54,41,31,45,55,72,291,51*5C
$BDGSV,4,1,13,147,82,11,48,148,30,180,25,150,71,315,46,151,,,*69
$BDGSV,4,2,13,152,68,271,47,164,66,219,50,165,33,310,31,166,29,165,38*6E
$BDGSV,4,3,13,174,39,252,47,175,25,55,43,178,41,174,27,180,70,45,49*6E
$BDGSV,4,4,13,184,76,10,50*52
$GAGSV,2,1,5,11,29,216,23,12,83,168,44,24,77,315,50,25,,,*65
$GAGSV,2,2,5,33,38,45,44*57
$GPRMC,062458.00,A,3956.9952896,N,11619.9756223,E,1.96,79.32,070422,,,A*68
$GPGGA,062458.00,3956.9952896,N,11619.9756223,E,1,21,0.9,43.289,M,0.000,M,66.0,0000*78
$GPGSA,A,3,1,21,14,30,8,17,,,,,,,1.54,0.92,0.51*07
$GLGSA,A,3,55,54,52,,,,,,,,,,1.54,0.92,0.51*17
$BDGSA,A,3,152,147,184,180,164,150,174,175,165,,,,1.54,0.92,0.51*28
$GAGSA,A,3,24,12,33,,,,,,,,,,1.54,0.92,0.51*19
$GPGSV,2,1,7,1,77,109,51,7,34,202,28,8,28,68,39,14,54,313,46*4B
$GPGSV,2,2,7,17,31,270,44,21,48,52,50,30,46,233,40*45
$GLGSV,1,1,4,46,,,27,52,52,159,36,54,41,31,43,55,72,291,52*57
$BDGSV,4,1,13,147,82,11,48,148,30,180,22,150,71,315,46,151,,,*6E
$BDGSV,4,2,13,152,68,271,48,164,66,219,50,165,33,310,32,166,29,165,41*6C
$BDGSV,4,3,13,174,39,252,47,175,25,55,43,178,41,174,28,180,70,45,49*61
$BDGSV,4,4,13,184,76,10,50*52
$GAGSV,2,1,6,11,29,216,22,12,83,168,45,24,77,315,50,25,,,*66
$GAGSV,2,2,6,31,51,131,28,33,38,45,45*6A
$GPRMC,062459.00,A,3956.9954131,N,11619.9764634,E,2.32,63.63,070422,,,A*6A
$GPGGA,062459.00,3956.9954131,N,11619.9764634,E,1,22,0.8,43.268,M,0.000,M,67.0,0000*74
$GPGSA,A,3,30,17,14,1,21,8,,,,,,,1.35,0.76,0.50*0B
$GLGSA,A,3,52,54,55,,,,,,,,,,1.35,0.76,0.50*1B
$BDGSA,A,3,174,152,164,150,147,184,180,175,165,166,,,1.35,0.76,0.50*15
$GAGSA,A,3,24,12,33,,,,,,,,,,1.35,0.76,0.50*15
$GPGSV,2,1,7,1,77,109,50,7,34,202,31,8,28,68,43,14,54,313,48*41
$GPGSV,2,2,7,17,31,270,44,21,48,52,48,30,46,233,39*42
$GLGSV,2,1,5,46,,,24,52,52,159,35,54,41,31,42,55,72,291,51*57
$GLGSV,2,2,5,56,,,*53
$BDGSV,4,1,13,147,82,11,49,148,30,180,24,150,71,315,46,151,19,244,27*56
$BDGSV,4,2,13,152,68,271,48,164,66,219,50,165,33,310,31,166,29,165,41*6F
$BDGSV,4,3,13,174,39,252,46,175,25,55,42,178,41,174,31,180,70,45,49*69
$BDGSV,4,4,13,184,76,10,50*52
$GAGSV,2,1,6,11,29,216,24,12,83,168,44,24,77,315,49,25,20,313,21*59
$GAGSV,2,2,6,31,51,131,29,33,38,45,45*6B
$GPRMC,062500.00,A,3956.9956025,N,11619.9772972,E,1.94,0.00,070422,,,A*54
$GPGGA,062500.00,3956.9956025,N,11619.9772972,E,1,22,0.8,43.312,M,0.000,M,68.0,0000*76
$GPGSA,A,3,14,17,8,21,30,1,,,,,,,1.35,0.76,0.50*0B
$GLGSA,A,3,52,55,54,,,,,,,,,,1.35,0.76,0.50*1B
$BDGSA,A,3,175,150,152,184,174,147,180,164,165,166,,,1.35,0.76,0.50*15
$GAGSA,A,3,33,24,12,,,,,,,,,,1.35,0.76,0.50*15
$GPGSV,2,1,8,1,77,109,52,7,34,202,28,8,28,68,39,14,54,313,46*47
$GPGSV,2,2,8,17,31,270,43,19,11,261,21,21,48,52,49,30,46,233,41*7A
$GLGSV,2,1,5,46,,,24,52,52,159,33,54,41,31,42,55,72,291,52*52
$GLGSV,2,2,5,56,,,*53
$BDGSV,4,1,13,147,82,11,48,148,30,180,27,150,71,315,46,151,19,244,28*5B
$BDGSV,4,2,13,152,68,271,48,164,66,219,50,165,33,310,30,166,29,165,41*6E
$BDGSV,4,3,13,174,39,252,48,175,25,55,43,178,41,174,31,180,70,45,49*66
$BDGSV,4,4,13,184,76,10,50*52
$GAGSV,2,1,6,11,29,216,25,12,83,168,45,24,77,315,49,25,20,313,21*59
$GAGSV,2,2,6,31,51,132,32,33,38,45,43*64
$GPRMC,062501.00,A,3956.9957229,N,11619.9781641,E,2.58,88.64,070422,,,A*68
$GPGGA,062501.00,3956.9957229,N,11619.9781641,E,1,23,0.7,43.286,M,0.000,M,69.0,0000*78
$GPGSA,A,3,30,17,14,1,21,8,,,,,,,1.32,0.71,0.50*0B
$GLGSA,A,3,52,55,54,,,,,,,,,,1.32,0.71,0.50*1B
$BDGSA,A,3,152,174,164,150,147,184,180,175,165,178,166,,1.32,0.71,0.50*2B
$GAGSA,A,3,24,12,33,,,,,,,,,,1.32,0.71,0.50*15
$GPGSV,2,1,8,1,77,109,51,7,34,202,31,8,28,68,39,14,54,313,47*4D
$GPGSV,2,2,8,17,31,270,43,19,11,261,20,21,48,52,47,30,46,233,41*75
$GLGSV,2,1,5,46,,,28,52,52,159,32,54,41,31,46,55,72,291,51*58
$GLGSV,2,2,5,56,,,*53
$BDGSV,4,1,13,147,82,11,48,148,30,180,25,150,71,315,47,151,19,244,30*51
$BDGSV,4,2,13,152,68,271,47,164,66,219,49,165,33,310,31,166,29,165,36*68
$BDGSV,4,3,13,174,39,252,48,175,25,55,44,178,41,174,32,180,70,45,49*62
$BDGSV,4,4,13,184,76,10,50*52
$GAGSV,2,1,6,11,29,216,24,12,83,168,45,24,77,315,49,25,20,313,23*5A
$GAGSV,2,2,6,31,51,132,28,33,38,45,46*6A
$GPRMC,062502.00,A,3956.9958081,N,11619.9790534,E,2.54,87.26,070422,,,A*60
$GPGGA,062502.00,3956.9958081,N,11619.9790534,E,1,22,0.7,43.249,M,0.000,M,70.0,0000*7F
$GPGSA,A,3,1,14,21,30,8,17,,,,,,,1.34,0.75,0.50*09
$GLGSA,A,3,55,54,,,,,,,,,,,1.34,0.75,0.50*1E
$BDGSA,A,3,152,147,180,184,150,164,174,175,165,178,166,,1.34,0.75,0.50*29
$GAGSA,A,3,24,12,33,,,,,,,,,,1.34,0.75,0.50*17
$GPGSV,2,1,8,1,77,109,51,7,33,202,31,8,28,68,39,14,54,313,47*4A
$GPGSV,2,2,8,17,31,270,43,19,11,261,21,21,48,52,48,30,46,233,39*74
$GLGSV,2,1,5,46,,,26,52,52,159,35,54,41,31,47,55,72,291,51*50
$GLGSV,2,2,5,56,,,*53
$BDGSV,4,1,13,147,82,11,48,148,30,180,29,150,71,315,47,151,19,244,27*5B
$BDGSV,4,2,13,152,68,271,47,164,66,219,49,165,33,310,32,166,29,165,30*6D
$BDGSV,4,3,13,174,40,252,47,175,25,55,42,178,41,174,31,180,70,45,49*66
$BDGSV,4,4,13,184,76,10,51*53
$GAGSV,2,1,6,11,29,216,27,12,83,168,45,24,77,315,49,25,20,313,21*5B
$GAGSV,2,2,6,31,51,132,27,33,38,45,46*65
$GPRMC,062503.00,A,3956.9959179,N,11619.9799012,E,2.50,84.61,070422,,,A*6A
$GPGGA,062503.00,3956.9959179,N,11619.9799012,E,1,21,0.8,43.261,M,0.000,M,71.0,0000*76
$GPGSA,A,3,1,14,21,30,8,17,,,,,,,1.33,0.77,0.50*0C
$GLGSA,A,3,55,54,,,,,,,,,,,1.33,0.77,0.50*1B
$BDGSA,A,3,152,184,147,180,164,150,174,175,165,166,,,1.33,0.77,0.50*12
$GAGSA,A,3,12,24,33,,,,,,,,,,1.33,0.77,0.50*12
$GPGSV,2,1,8,1,77,109,52,7,33,202,30,8,28,68,40,14,54,313,45*44
$GPGSV,2,2,8,17,31,270,43,19,11,261,19,21,48,52,49,30,46,233,40*70
$GLGSV,1,1,4,46,,,26,54,41,31,48,55,72,291,51,56,,,*65
$BDGSV,4,1,13,147,82,11,48,148,30,180,33,150,71,315,46,151,19,244,28*5E
$BDGSV,4,2,13,152,68,271,48,164,66,219,50,165,33,310,31,166,29,165,32*6B
$BDGSV,4,3,13,174,40,252,47,175,25,55,40,178,,,,180,70,45,49*51
$BDGSV,4,4,13,184,76,10,50*52
$GAGSV,2,1,6,11,29,216,27,12,83,168,45,24,77,315,49,25,20,313,26*5C
$GAGSV,2,2,6,31,51,132,26,33,38,45,46*64

$GPRMC,064405.00,A,3956.9410246,N,11620.1601701,E,0.04,0.00,070422,,,A*5B
$GPGGA,064405.00,3956.9410246,N,11620.1601701,E,1,17,0.9,46.405,M,0.000,M,283.0,0000*45
$GPGSA,A,3,8,21,14,1,,,,,,,,,1.44,0.87,0.50*06
$GLGSA,A,3,52,46,55,,,,,,,,,,1.44,0.87,0.50*10
$BDGSA,A,3,174,152,150,164,180,147,184,,,,,,1.44,0.87,0.50*2D
$GAGSA,A,3,25,33,24,,,,,,,,,,1.44,0.87,0.50*19
$GPGSV,2,1,6,1,74,71,44,8,21,74,39,14,63,313,38,17,37,278,33*4F
$GPGSV,2,2,6,21,40,49,36,30,39,224,27*78
$GLGSV,2,1,5,46,22,327,41,52,41,163,26,54,32,36,41,55,70,327,46*63
$GLGSV,2,2,5,56,,,*53
$BDGSV,3,1,12,147,84,27,37,148,,,,150,73,315,29,151,,,*52
$BDGSV,3,2,12,152,72,294,32,164,59,208,38,165,39,304,37,174,45,260,35*63
$BDGSV,3,3,12,175,19,59,36,178,46,177,27,180,71,55,46,184,70,26,37*56
$GAGSV,2,1,5,12,86,82,30,24,83,293,42,25,26,314,42,31,,,*58
$GAGSV,2,2,5,33,32,45,41*58
$GPRMC,064406.00,A,3956.9410283,N,11620.1601585,E,0.05,0.00,070422,,,A*5E
$GPGGA,064406.00,3956.9410283,N,11620.1601585,E,1,16,1.1,46.405,M,0.000,M,284.0,0000*4E
$GPGSA,A,3,8,1,21,14,,,,,,,,,1.72,1.12,0.50*0E
$GLGSA,A,3,46,55,,,,,,,,,,,1.72,1.12,0.50*1F
$BDGSA,A,3,174,152,150,184,180,147,164,,,,,,1.72,1.12,0.50*25
$GAGSA,A,3,25,33,24,,,,,,,,,,1.72,1.12,0.50*11
$GPGSV,2,1,6,1,74,71,44,8,21,74,36,14,63,313,38,17,37,278,34*47
$GPGSV,2,2,6,21,40,49,35,30,39,224,30*7D
$GLGSV,2,1,5,46,22,327,44,52,,,,54,32,36,42,55,70,327,45*53
$GLGSV,2,2,5,56,,,*53
$BDGSV,3,1,11,147,84,27,36,150,73,315,30,151,,,,152,72,294,31*6B
$BDGSV,3,2,11,164,59,208,36,165,39,304,38,174,45,260,36,175,19,59,36*5D
$BDGSV,3,3,11,178,46,177,28,180,71,55,47,184,70,26,32*6C
$GAGSV,2,1,5,12,86,82,29,24,83,293,43,25,26,314,42,31,,,*51
$GAGSV,2,2,5,33,32,45,40*59
$GPRMC,064407.00,A,3956.9410544,N,11620.1601333,E,0.08,0.00,070422,,,A*55
$GPGGA,064407.00,3956.9410544,N,11620.1601333,E,1,16,1.1,46.417,M,0.000,M,285.0,0000*4A
$GPGSA,A,3,8,1,21,14,,,,,,,,,1.63,1.09,0.50*04
$GLGSA,A,3,46,55,,,,,,,,,,,1.63,1.09,0.50*15
$BDGSA,A,3,174,184,150,152,180,147,164,,,,,,1.63,1.09,0.50*2F
$GAGSA,A,3,25,33,24,,,,,,,,,,1.63,1.09,0.50*1B
$GPGSV,2,1,7,1,74,71,45,8,21,74,35,14,63,313,37,17,37,278,34*4B
$GPGSV,2,2,7,19,17,267,28,21,40,49,34,30,39,224,31*4B
$GLGSV,2,1,5,46,22,327,46,52,,,,54,32,36,42,55,70,327,45*51
$GLGSV,2,2,5,56,,,*53
$BDGSV,3,1,11,147,84,27,36,150,73,315,30,151,,,,152,72,294,29*62
$BDGSV,3,2,11,164,59,208,34,165,39,304,38,174,45,260,36,175,19,59,36*5F
$BDGSV,3,3,11,178,46,177,28,180,71,55,47,184,70,26,33*6D
$GAGSV,2,1,5,12,86,82,29,24,83,293,43,25,26,314,42,31,,,*51
$GAGSV,2,2,5,33,32,45,39*57
$GPRMC,064408.00,A,3956.9410690,N,11620.1601469,E,0.02,0.00,070422,,,A*52
$GPGGA,064408.00,3956.9410690,N,11620.1601469,E,1,16,1.1,46.416,M,0.000,M,286.0,0000*45
$GPGSA,A,3,17,8,1,21,14,,,,,,,,1.68,1.13,0.50*02
$GLGSA,A,3,46,55,,,,,,,,,,,1.68,1.13,0.50*15
$BDGSA,A,3,174,152,184,164,147,180,,,,,,,1.68,1.13,0.50*1B
$GAGSA,A,3,25,33,24,,,,,,,,,,1.68,1.13,0.50*1B
$GPGSV,2,1,7,1,74,71,45,8,21,74,35,14,63,313,38,17,37,278,33*43
$GPGSV,2,2,7,19,17,267,28,21,40,49,32,30,39,224,34*48
$GLGSV,2,1,5,46,22,327,46,52,41,163,27,54,32,36,42,55,70,327,45*65
$GLGSV,2,2,5,56,,,*53
$BDGSV,3,1,11,147,84,27,36,150,,,,151,,,,152,72,294,29*52
$BDGSV,3,2,11,164,59,208,34,165,39,304,38,174,45,260,35,175,19,59,35*5F
$BDGSV,3,3,11,178,46,177,30,180,71,55,47,184,70,26,34*63
$GAGSV,2,1,5,12,86,82,29,24,83,293,43,25,26,314,42,31,,,*51
$GAGSV,2,2,5,33,32,45,38*56
$GPRMC,064409.00,A,3956.9410594,N,11620.1601534,E,0.08,0.00,070422,,,A*57
$GPGGA,064409.00,3956.9410594,N,11620.1601534,E,1,17,0.9,46.404,M,0.000,M,287.0,0000*40
$GPGSA,A,3,8,21,17,14,1,30,,,,,,,1.43,0.91,0.50*03
$GLGSA,A,3,46,55,,,,,,,,,,,1.43,0.91,0.50*17
$BDGSA,A,3,174,152,164,184,147,180,,,,,,,1.43,0.91,0.50*19
$GAGSA,A,3,25,33,24,,,,,,,,,,1.43,0.91,0.50*19
$GPGSV,2,1,7,1,74,71,44,8,21,74,35,14,63,313,37,17,37,278,33*4D
$GPGSV,2,2,7,19,17,267,28,21,40,49,33,30,39,224,36*4B
$GLGSV,2,1,5,46,22,327,47,52,41,163,23,54,32,36,41,55,70,327,45*63
$GLGSV,2,2,5,56,,,*53
$BDGSV,3,1,11,147,84,27,37,150,,,,151,,,,152,72,294,28*52
$BDGSV,3,2,11,164,59,208,34,165,39,304,38,174,45,260,35,175,19,59,35*5F
$BDGSV,3,3,11,178,46,177,31,180,71,55,47,184,70,26,35*63
$GAGSV,2,1,5,12,86,82,28,24,83,293,44,25,26,314,42,31,44,138,19*65
$GAGSV,2,2,5,33,32,45,39*57
$GPRMC,064410.00,A,3956.9410519,N,11620.1601592,E,0.08,0.00,070422,,,A*56
$GPGGA,064410.00,3956.9410519,N,11620.1601592,E,1,16,1.0,46.356,M,0.000,M,288.0,0000*47
$GPGSA,A,3,8,1,21,14,17,30,,,,,,,1.50,1.00,0.50*08
$GLGSA,A,3,46,55,,,,,,,,,,,1.50,1.00,0.50*1C
$BDGSA,A,3,174,152,184,147,180,,,,,,,,1.50,1.00,0.50*21
$GAGSA,A,3,25,33,24,,,,,,,,,,1.50,1.00,0.50*12
$GPGSV,2,1,7,1,74,71,44,8,21,74,35,14,63,313,38,17,37,278,32*43
$GPGSV,2,2,7,19,17,267,28,21,40,49,33,30,39,224,36*4B
$GLGSV,2,1,5,46,22,327,47,52,41,163,22,54,32,36,42,55,70,327,45*61
$GLGSV,2,2,5,56,,,*53
$BDGSV,3,1,11,147,84,27,37,150,,,,151,25,251,31,152,72,294,29*60
$BDGSV,3,2,11,164,,,,165,39,304,38,174,45,260,34,175,19,59,36*6C
$BDGSV,3,3,11,178,46,177,32,180,71,55,47,184,70,26,33*66
$GAGSV,2,1,5,12,86,82,28,24,83,293,43,25,26,314,42,31,,,*50
$GAGSV,2,2,5,33,32,45,39*57
$GPRMC,064411.00,A,3956.9410407,N,11620.1601544,E,0.07,0.00,070422,,,A*5D
$GPGGA,064411.00,3956.9410407,N,11620.1601544,E,1,16,1.0,46.317,M,0.000,M,289.0,0000*47
$GPGSA,A,3,8,21,14,17,1,30,,,,,,,1.48,0.98,0.50*01
$GLGSA,A,3,46,55,,,,,,,,,,,1.48,0.98,0.50*15
$BDGSA,A,3,174,152,184,147,180,,,,,,,,1.48,0.98,0.50*28
$GAGSA,A,3,25,33,24,,,,,,,,,,1.48,0.98,0.50*1B
$GPGSV,2,1,7,1,74,71,44,8,21,74,35,14,63,313,37,17,37,278,29*46
$GPGSV,2,2,7,19,17,267,28,21,40,49,34,30,39,224,34*4E
$GLGSV,2,1,5,46,22,327,47,52,41,163,28,54,32,36,42,55,70,327,44*6A
$GLGSV,2,2,5,56,,,*53
$BDGSV,3,1,11,147,84,27,36,150,,,,151,25,251,32,152,72,294,30*6A
$BDGSV,3,2,11,164,,,,165,39,304,38,174,45,260,35,175,19,59,36*6D
$BDGSV,3,3,11,178,46,177,29,180,71,55,46,184,70,26,33*6D
$GAGSV,2,1,5,12,86,82,29,24,83,293,43,25,26,314,41,31,44,138,23*69
$GAGSV,2,2,5,33,32,45,40*59
$GPRMC,064412.00,A,3956.9410422,N,11620.1601422,E,0.06,0.00,070422,,,A*59
$GPGGA,064412.00,3956.9410422,N,11620.1601422,E,1,16,0.9,46.337,M,0.000,M,290.0,0000*40
$GPGSA,A,3,8,21,1,14,30,,,,,,,,1.45,0.91,0.50*03
$GLGSA,A,3,46,55,,,,,,,,,,,1.45,0.91,0.50*11
$BDGSA,A,3,174,152,184,180,147,164,,,,,,,1.45,0.91,0.50*1F
$GAGSA,A,3,25,33,24,,,,,,,,,,1.45,0.91,0.50*1F
$GPGSV,2,1,7,1,73,71,44,8,21,74,36,14,63,313,36,17,,,*71
$GPGSV,2,2,7,19,17,267,27,21,40,49,32,30,39,224,36*45
$GLGSV,2,1,5,46,22,327,47,52,41,163,30,54,32,36,41,55,70,327,44*60
$GLGSV,2,2,5,56,,,*53
$BDGSV,3,1,11,147,84,27,37,150,,,,151,25,251,31,152,72,294,29*60
$BDGSV,3,2,11,164,59,208,34,165,39,304,39,174,45,260,35,175,19,59,36*5D
$BDGSV,3,3,11,178,46,177,29,180,71,55,46,184,70,26,34*6A
$GAGSV,2,1,5,12,86,82,29,24,83,293,44,25,26,314,41,31,44,138,23*6E
$GAGSV,2,2,5,33,32,45,40*59
$GPRMC,064413.00,A,3956.9410392,N,11620.1601393,E,0.07,0.00,070422,,,A*58
$GPGGA,064413.00,3956.9410392,N,11620.1601393,E,1,20,0.9,46.370,M,0.000,M,0.0,0000*4D
$GPGSA,A,3,1,8,14,19,21,30,,,,,,,1.31,0.87,0.50*0F
$GLGSA,A,3,46,54,55,,,,,,,,,,1.31,0.87,0.50*14
$BDGSA,A,3,147,152,164,165,174,175,180,184,,,,,1.31,0.87,0.50*1A
$GAGSA,A,3,24,25,33,,,,,,,,,,1.31,0.87,0.50*1B
$GPGSV,2,1,7,1,73,71,44,8,21,74,35,14,63,313,35,17,,,*71
$GPGSV,2,2,7,19,17,267,26,21,40,49,32,30,39,224,37*45
$GLGSV,2,1,5,46,22,327,47,52,41,163,30,54,32,36,41,55,70,327,44*60
$GLGSV,2,2,5,56,,,*53
$BDGSV,3,1,12,147,84,27,37,148,,,,150,,,,151,25,251,31*59
$BDGSV,3,2,12,152,72,294,30,164,59,208,33,165,39,304,38,174,45,260,35*65
$BDGSV,3,3,12,175,19,59,35,178,46,177,31,180,71,55,46,184,70,26,34*51
$GAGSV,2,1,5,12,86,82,29,24,83,293,43,25,26,314,41,31,44,138,23*69
$GAGSV,2,2,5,33,32,45,40*59
$GPRMC,064414.00,A,3956.9430655,N,11620.1599316,E,4.05,6.46,070422,,,A*5E
$GPGGA,064414.00,3956.9430655,N,11620.1599316,E,1,20,1.0,52.238,M,0.000,M,0.0,0000*49
$GPGSA,A,3,1,8,14,19,21,30,,,,,,,1.62,1.01,0.58*0E
$GLGSA,A,3,46,54,55,,,,,,,,,,1.62,1.01,0.58*15
$BDGSA,A,3,147,152,164,165,174,175,180,184,,,,,1.62,1.01,0.58*1B
$GAGSA,A,3,24,25,33,,,,,,,,,,1.62,1.01,0.58*1A
$GPGSV,2,1,7,1,73,71,44,8,21,74,35,14,63,313,35,17,,,*71
$GPGSV,2,2,7,19,17,267,27,21,40,49,32,30,39,224,37*44
$GLGSV,2,1,5,46,22,327,47,52,41,163,30,54,32,36,41,55,70,327,44*60
$GLGSV,2,2,5,56,,,*53
$BDGSV,3,1,12,147,84,27,37,148,,,,150,,,,151,25,251,31*59
$BDGSV,3,2,12,152,72,294,30,164,59,208,34,165,39,304,37,174,45,260,35*6D
$BDGSV,3,3,12,175,19,59,36,178,46,177,32,180,71,55,46,184,70,26,34*51
$GAGSV,2,1,5,12,86,82,29,24,83,293,44,25,26,314,41,31,44,138,20*6D
$GAGSV,2,2,5,33,32,45,39*57
$GPRMC,064415.00,A,3956.9434100,N,11620.1596402,E,10.48,327.36,070422,,,A*6A
$GPGGA,064415.00,3956.9434100,N,11620.1596402,E,1,20,1.1,52.951,M,0.000,M,0.0,0000*43
$GPGSA,A,3,1,8,14,19,21,30,,,,,,,1.65,1.06,0.62*07
$GLGSA,A,3,46,54,55,,,,,,,,,,1.65,1.06,0.62*1C
$BDGSA,A,3,147,152,164,165,174,175,180,184,,,,,1.65,1.06,0.62*12
$GAGSA,A,3,24,25,33,,,,,,,,,,1.65,1.06,0.62*13
$GPGSV,2,1,7,1,73,71,44,8,21,74,34,14,63,313,36,17,,,*73
$GPGSV,2,2,7,19,17,267,27,21,40,49,34,30,39,224,37*42
$GLGSV,2,1,5,46,22,327,48,52,41,163,33,54,32,36,40,55,70,327,44*6D
$GLGSV,2,2,5,56,,,*53
$BDGSV,3,1,12,147,84,27,37,148,,,,150,,,,151,25,251,31*59
$BDGSV,3,2,12,152,72,294,27,164,59,208,30,165,39,304,36,174,45,260,33*68
$BDGSV,3,3,12,175,19,59,38,178,46,177,32,180,71,55,47,184,70,26,35*5F
$GAGSV,2,1,5,12,86,81,29,24,83,292,43,25,26,314,41,31,44,138,27*6F
$GAGSV,2,2,5,33,32,45,39*57
$GPRMC,064416.00,A,3956.9428721,N,11620.1602231,E,12.31,139.70,070422,,,A*6A
$GPGGA,064416.00,3956.9428721,N,11620.1602231,E,1,22,1.0,52.930,M,0.000,M,0.0,0000*44
$GPGSA,A,3,1,8,14,19,21,30,,,,,,,1.61,1.05,0.62*00
$GLGSA,A,3,46,52,54,55,,,,,,,,,1.61,1.05,0.62*1C
$BDGSA,A,3,147,150,152,164,165,174,175,180,184,,,,1.61,1.05,0.62*21
$GAGSA,A,3,24,25,33,,,,,,,,,,1.61,1.05,0.62*14
$GPGSV,2,1,7,1,73,71,44,8,21,74,38,14,63,313,34,17,,,*7D
$GPGSV,2,2,7,19,17,267,29,21,40,49,36,30,39,224,36*4F
$GLGSV,2,1,5,46,22,327,47,52,41,163,34,54,32,36,40,55,70,327,44*65
$GLGSV,2,2,5,56,,,*53
$BDGSV,3,1,12,147,84,27,36,148,,,,150,73,315,28,151,25,251,31*61
$BDGSV,3,2,12,152,72,294,31,164,59,208,35,165,39,304,38,174,45,260,37*60
$BDGSV,3,3,12,175,19,59,36,178,46,177,29,180,71,55,46,184,70,26,38*57
$GAGSV,2,1,5,12,86,81,30,24,83,292,43,25,26,314,41,31,44,138,26*66
$GAGSV,2,2,5,33,32,45,41*58
$GPRMC,064417.00,A,3956.9426942,N,11620.1604219,E,6.44,142.68,070422,,,A*50
$GPGGA,064417.00,3956.9426942,N,11620.1604219,E,1,23,1.0,53.421,M,0.000,M,0.0,0000*41
$GPGSA,A,3,1,8,14,17,19,21,30,,,,,,1.58,1.00,0.57*0F
$GLGSA,A,3,46,52,54,55,,,,,,,,,1.58,1.00,0.57*15
$BDGSA,A,3,147,150,152,164,165,174,175,180,184,,,,1.58,1.00,0.57*28
$GAGSA,A,3,24,25,33,,,,,,,,,,1.58,1.00,0.57*1D
$GPGSV,2,1,7,1,73,71,44,8,21,74,39,14,63,313,35,17,37,278,30*47
$GPGSV,2,2,7,19,17,267,31,21,40,49,38,30,39,224,33*4D
$GLGSV,2,1,5,46,22,327,44,52,41,163,32,54,32,36,40,55,70,327,45*61
$GLGSV,2,2,5,56,,,*53
$BDGSV,3,1,12,147,84,27,37,148,,,,150,73,315,30,151,25,251,30*68
$BDGSV,3,2,12,152,72,294,33,164,59,208,38,165,39,304,38,174,45,260,38*60
$BDGSV,3,3,12,175,19,59,35,178,46,177,29,180,71,55,45,184,70,26,39*56
$GAGSV,2,1,5,12,86,81,31,24,83,292,42,25,26,314,41,31,44,138,22*62
$GAGSV,2,2,5,33,32,45,41*58
$GPRMC,064418.00,A,3956.9435277,N,11620.1600527,E,16.27,341.51,070422,,,A*61
$GPGGA,064418.00,3956.9435277,N,11620.1600527,E,1,23,0.9,53.853,M,0.000,M,0.0,0000*4E
$GPGSA,A,3,1,8,14,17,19,21,30,,,,,,1.42,0.85,0.57*08
$GLGSA,A,3,46,52,54,55,,,,,,,,,1.42,0.85,0.57*12
$BDGSA,A,3,147,150,152,164,165,174,175,180,184,,,,1.42,0.85,0.57*2F
$GAGSA,A,3,24,25,33,,,,,,,,,,1.42,0.85,0.57*1A
$GPGSV,2,1,7,1,73,71,43,8,21,74,38,14,63,313,35,17,37,278,33*42
$GPGSV,2,2,7,19,17,267,31,21,40,49,39,30,39,224,32*4D
$GLGSV,2,1,5,46,22,327,43,52,41,163,30,54,32,36,40,55,70,327,46*67
$GLGSV,2,2,5,56,,,*53
$BDGSV,3,1,12,147,84,27,37,148,,,,150,73,315,31,151,25,251,30*69
$BDGSV,3,2,12,152,72,294,34,164,59,208,39,165,39,304,38,174,46,260,38*65
$BDGSV,3,3,12,175,19,59,35,178,,,,180,71,55,45,184,70,26,39*6E
$GAGSV,2,1,5,12,86,81,31,24,83,292,42,25,26,314,40,31,,,*59
$GAGSV,2,2,5,33,32,45,42*5B
$GPRMC,064419.00,A,3956.9433363,N,11620.1600973,E,3.84,170.80,070422,,,A*5E
$GPGGA,064419.00,3956.9433363,N,11620.1600973,E,1,23,0.9,53.753,M,0.000,M,0.0,0000*4F
$GPGSA,A,3,1,8,14,17,19,21,30,,,,,,1.42,0.85,0.57*08
$GLGSA,A,3,46,52,54,55,,,,,,,,,1.42,0.85,0.57*12
$BDGSA,A,3,147,150,152,164,165,174,175,180,184,,,,1.42,0.85,0.57*2F
$GAGSA,A,3,24,25,33,,,,,,,,,,1.42,0.85,0.57*1A
$GPGSV,2,1,7,1,73,71,43,8,21,74,38,14,63,313,35,17,37,278,34*45
$GPGSV,2,2,7,19,17,267,30,21,40,49,39,30,39,224,32*4C
$GLGSV,2,1,5,46,22,327,43,52,41,163,31,54,32,36,40,55,70,327,46*66
$GLGSV,2,2,5,56,,,*53
$BDGSV,3,1,12,147,84,27,38,148,,,,150,73,315,32,151,25,251,31*64
$BDGSV,3,2,12,152,72,294,34,164,59,208,39,165,39,304,38,174,46,260,38*65
$BDGSV,3,3,12,175,19,59,35,178,46,177,29,180,71,55,45,184,70,26,39*56
$GAGSV,2,1,5,12,86,81,30,24,83,292,42,25,26,314,40,31,,,*58
$GAGSV,2,2,5,33,32,45,42*5B
$GPRMC,064420.00,A,3956.9432556,N,11620.1602926,E,7.73,119.75,070422,,,A*5E
$GPGGA,064420.00,3956.9432556,N,11620.1602926,E,1,22,0.9,53.027,M,0.000,M,0.0,0000*43
$GPGSA,A,3,1,8,14,17,19,21,30,,,,,,1.42,0.85,0.57*08
$GLGSA,A,3,46,52,55,,,,,,,,,,1.42,0.85,0.57*13
$BDGSA,A,3,147,150,152,164,165,174,175,180,184,,,,1.42,0.85,0.57*2F
$GAGSA,A,3,24,25,33,,,,,,,,,,1.42,0.85,0.57*1A
$GPGSV,2,1,7,1,73,71,43,8,21,74,38,14,63,313,34,17,37,278,34*44
$GPGSV,2,2,7,19,17,267,29,21,40,49,40,30,39,224,32*4A
$GLGSV,2,1,5,46,22,327,44,52,41,163,32,54,,,,55,70,327,46*62
$GLGSV,2,2,5,56,,,*53
$BDGSV,3,1,12,147,84,27,37,148,,,,150,73,315,32,151,25,251,32*68
$BDGSV,3,2,12,152,72,294,34,164,59,208,39,165,39,304,39,174,46,260,39*65
$BDGSV,3,3,12,175,19,59,35,178,46,177,29,180,71,55,45,184,70,26,39*56
$GAGSV,2,1,5,12,86,81,31,24,83,292,42,25,26,314,40,31,,,*59
$GAGSV,2,2,5,33,32,45,42*5B
$GPRMC,064421.00,A,3956.9432756,N,11620.1602765,E,0.81,0.00,070422,,,A*55
$GPGGA,064421.00,3956.9432756,N,11620.1602765,E,1,22,0.9,53.094,M,0.000,M,0.0,0000*41
$GPGSA,A,3,1,8,14,17,19,21,30,,,,,,1.42,0.85,0.57*08
$GLGSA,A,3,46,52,55,,,,,,,,,,1.42,0.85,0.57*13
$BDGSA,A,3,147,150,152,164,165,174,175,180,184,,,,1.42,0.85,0.57*2F
$GAGSA,A,3,24,25,33,,,,,,,,,,1.42,0.85,0.57*1A
$GPGSV,2,1,7,1,73,71,42,8,21,74,39,14,63,313,33,17,37,278,34*43
$GPGSV,2,2,7,19,17,267,30,21,40,49,40,30,39,224,33*43
$GLGSV,2,1,5,46,22,327,44,52,41,163,34,54,,,,55,70,327,46*64
$GLGSV,2,2,5,56,,,*53
$BDGSV,3,1,12,147,84,27,37,148,,,,150,73,315,31,151,,,*5B
$BDGSV,3,2,12,152,72,294,35,164,59,208,39,165,39,304,39,174,46,260,39*64
$BDGSV,3,3,12,175,19,59,34,178,46,177,29,180,71,55,45,184,70,26,39*57
$GAGSV,2,1,5,12,86,81,31,24,83,292,42,25,26,314,40,31,,,*59
$GAGSV,2,2,5,33,32,45,42*5B
$GPRMC,064422.00,A,3956.9430852,N,11620.1602856,E,3.80,176.02,070422,,,A*50
$GPGGA,064422.00,3956.9430852,N,11620.1602856,E,1,22,0.9,53.254,M,0.000,M,0.0,0000*4A
$GPGSA,A,3,1,8,14,17,19,21,30,,,,,,1.42,0.85,0.57*08
$GLGSA,A,3,46,52,55,,,,,,,,,,1.42,0.85,0.57*13
$BDGSA,A,3,147,150,152,164,165,174,175,180,184,,,,1.42,0.85,0.57*2F
$GAGSA,A,3,24,25,33,,,,,,,,,,1.42,0.85,0.57*1A
$GPGSV,2,1,7,1,73,71,42,8,21,74,38,14,63,313,33,17,37,278,35*43
$GPGSV,2,2,7,19,17,267,28,21,40,49,39,30,39,224,33*44
$GLGSV,1,1,4,46,22,327,44,52,41,163,33,55,70,327,46,56,,,*63
$BDGSV,3,1,12,147,84,27,37,148,,,,150,73,315,31,151,,,*5B
$BDGSV,3,2,12,152,72,294,34,164,59,208,40,165,39,304,39,174,46,260,38*6A
$BDGSV,3,3,12,175,19,59,34,178,46,177,31,180,71,55,45,184,70,26,39*5E
$GAGSV,2,1,5,12,86,81,30,24,83,292,42,25,26,314,40,31,44,138,22*62
$GAGSV,2,2,5,33,32,45,42*5B
$GPRMC,064423.00,A,3956.9430693,N,11620.1602980,E,1.01,0.00,070422,,,A*51
$GPGGA,064423.00,3956.9430693,N,11620.1602980,E,1,21,0.9,53.328,M,0.000,M,0.0,0000*4B
$GPGSA,A,3,1,8,14,17,19,21,30,,,,,,1.46,0.86,0.57*0F
$GLGSA,A,3,46,52,55,,,,,,,,,,1.46,0.86,0.57*14
$BDGSA,A,3,147,152,164,165,174,175,180,184,,,,,1.46,0.86,0.57*1C
$GAGSA,A,3,24,25,33,,,,,,,,,,1.46,0.86,0.57*1D
$GPGSV,2,1,7,1,73,71,42,8,21,74,38,14,63,313,32,17,37,278,35*42
$GPGSV,2,2,7,19,17,267,28,21,40,49,39,30,39,224,34*43
$GLGSV,2,1,5,46,22,327,45,52,41,163,32,54,,,,55,70,327,46*63
$GLGSV,2,2,5,56,,,*53
$BDGSV,3,1,12,147,84,27,38,148,,,,150,,,,151,25,251,31*56
$BDGSV,3,2,12,152,72,294,34,164,59,208,39,165,39,304,38,174,46,260,38*65
$BDGSV,3,3,12,175,19,59,35,178,46,177,31,180,71,55,46,184,70,26,39*5C
$GAGSV,2,1,5,12,86,81,30,24,83,292,42,25,26,314,40,31,44,138,21*61
$GAGSV,2,2,5,33,32,45,42*5B
$GPRMC,064424.00,A,3956.9428019,N,11620.1602783,E,8.19,184.56,070422,,,A*58
$GPGGA,064424.00,3956.9428019,N,11620.1602783,E,1,20,0.9,52.633,M,0.000,M,0.0,0000*43
$GPGSA,A,3,1,8,14,19,21,30,,,,,,,1.46,0.86,0.57*09
$GLGSA,A,3,46,52,55,,,,,,,,,,1.46,0.86,0.57*14
$BDGSA,A,3,147,152,164,165,174,175,180,184,,,,,1.46,0.86,0.57*1C
$GAGSA,A,3,24,25,33,,,,,,,,,,1.46,0.86,0.57*1D
$GPGSV,2,1,7,1,73,71,42,8,21,74,38,14,63,313,30,17,,,*7F
$GPGSV,2,2,7,19,17,267,27,21,40,49,40,30,39,224,34*42
$GLGSV,2,1,5,46,22,327,45,52,41,163,30,54,,,,55,70,327,46*61
$GLGSV,2,2,5,56,,,*53
$BDGSV,3,1,12,147,84,27,37,148,,,,150,,,,151,25,251,31*59
$BDGSV,3,2,12,152,72,294,34,164,59,208,39,165,39,304,39,174,46,260,39*65
$BDGSV,3,3,12,175,19,59,35,178,46,177,30,180,71,56,45,184,70,26,39*5D
$GAGSV,2,1,5,12,86,81,30,24,83,292,42,25,26,314,40,31,,,*58
$GAGSV,2,2,5,33,32,45,42*5B
$GPRMC,064425.00,A,3956.9428994,N,11620.1601389,E,3.08,313.12,070422,,,A*5F
$GPGGA,064425.00,3956.9428994,N,11620.1601389,E,1,21,0.8,52.490,M,0.000,M,0.0,0000*48
$GPGSA,A,3,1,8,14,19,21,30,,,,,,,1.43,0.83,0.55*0B
$GLGSA,A,3,46,52,54,55,,,,,,,,,1.43,0.83,0.55*17
$BDGSA,A,3,147,152,164,165,174,175,180,184,,,,,1.43,0.83,0.55*1E
$GAGSA,A,3,24,25,33,,,,,,,,,,1.43,0.83,0.55*1F
$GPGSV,2,1,7,1,73,71,42,8,21,74,39,14,63,313,29,17,,,*76
$GPGSV,2,2,7,19,17,267,27,21,40,49,39,30,39,224,35*4D
$GLGSV,2,1,5,46,22,327,45,52,41,163,31,54,32,36,41,55,70,327,46*61
$GLGSV,2,2,5,56,,,*53
$BDGSV,3,1,12,147,84,27,37,148,,,,150,,,,151,25,251,30*58
$BDGSV,3,2,12,152,72,294,34,164,59,208,39,165,39,304,39,174,46,260,39*65
$BDGSV,3,3,12,175,19,59,35,178,46,177,30,180,71,56,45,184,70,26,39*5D
$GAGSV,2,1,5,12,86,81,30,24,83,292,42,25,26,314,40,31,,,*58
$GAGSV,2,2,5,33,32,45,42*5B
$GPRMC,064426.00,A,3956.9430606,N,11620.1602510,E,4.05,25.30,070422,,,A*68
$GPGGA,064426.00,3956.9430606,N,11620.1602510,E,1,21,0.9,52.250,M,0.000,M,0.0,0000*48
$GPGSA,A,3,1,8,14,19,21,30,,,,,,,1.46,0.86,0.57*09
$GLGSA,A,3,46,52,54,55,,,,,,,,,1.46,0.86,0.57*15
$BDGSA,A,3,147,152,164,165,174,175,180,184,,,,,1.46,0.86,0.57*1C
$GAGSA,A,3,24,25,33,,,,,,,,,,1.46,0.86,0.57*1D
$GPGSV,2,1,7,1,73,71,42,8,21,74,39,14,63,313,30,17,,,*7E
$GPGSV,2,2,7,19,17,267,28,21,40,49,39,30,39,224,34*43
$GLGSV,2,1,5,46,22,327,45,52,41,163,32,54,32,36,41,55,70,327,46*62
$GLGSV,2,2,5,56,,,*53
$BDGSV,3,1,12,147,84,27,37,148,,,,150,,,,151,25,251,29*50
$BDGSV,3,2,12,152,72,294,34,164,59,208,39,165,39,304,39,174,46,260,38*64
$BDGSV,3,3,12,175,19,59,34,178,46,177,31,180,71,56,45,184,70,26,39*5D
$GAGSV,2,1,5,12,86,80,30,24,83,292,42,25,26,314,40,31,44,138,26*67
$GAGSV,2,2,5,33,32,45,42*5B
$GPRMC,064427.00,A,3956.9430002,N,11620.1603523,E,1.70,0.00,070422,,,A*59
$GPGGA,064427.00,3956.9430002,N,11620.1603523,E,1,21,0.9,52.172,M,0.000,M,0.0,0000*49
$GPGSA,A,3,1,8,14,19,21,30,,,,,,,1.46,0.86,0.57*09
$GLGSA,A,3,46,52,54,55,,,,,,,,,1.46,0.86,0.57*15
$BDGSA,A,3,147,152,164,165,174,175,180,184,,,,,1.46,0.86,0.57*1C
$GAGSA,A,3,24,25,33,,,,,,,,,,1.46,0.86,0.57*1D
$GPGSV,2,1,7,1,73,71,42,8,21,74,40,14,63,313,27,17,,,*76
$GPGSV,2,2,7,19,17,267,28,21,40,49,39,30,39,224,34*43
$GLGSV,2,1,5,46,22,327,45,52,41,163,30,54,32,36,41,55,70,327,47*61
$GLGSV,2,2,5,56,,,*53
$BDGSV,3,1,12,147,84,27,37,148,,,,150,,,,151,25,251,28*51
$BDGSV,3,2,12,152,72,295,33,164,59,208,38,165,39,304,38,174,46,260,39*63
$BDGSV,3,3,12,175,19,59,35,178,46,177,30,180,71,56,45,184,70,26,39*5D
$GAGSV,2,1,5,12,86,80,30,24,83,292,41,25,26,314,39,31,44,138,23*6F
$GAGSV,2,2,5,33,32,45,42*5B
$GPRMC,064428.00,A,3956.9427185,N,11620.1604960,E,8.06,159.46,070422,,,A*55
$GPGGA,064428.00,3956.9427185,N,11620.1604960,E,1,22,0.9,51.558,M,0.000,M,0.0,0000*4E
$GPGSA,A,3,1,8,14,17,19,21,30,,,,,,1.46,0.86,0.57*0F
$GLGSA,A,3,46,52,54,55,,,,,,,,,1.46,0.86,0.57*15
$BDGSA,A,3,147,152,164,165,174,175,180,184,,,,,1.46,0.86,0.57*1C
$GAGSA,A,3,24,25,33,,,,,,,,,,1.46,0.86,0.57*1D
$GPGSV,2,1,7,1,73,71,43,8,21,74,39,14,63,313,25,17,37,278,33*42
$GPGSV,2,2,7,19,17,267,28,21,40,49,39,30,39,224,33*44
$GLGSV,2,1,5,46,22,327,45,52,41,163,28,54,32,36,42,55,70,327,47*6B
$GLGSV,2,2,5,56,,,*53
$BDGSV,3,1,12,147,84,27,37,148,,,,150,,,,151,25,251,27*5E
$BDGSV,3,2,12,152,72,295,34,164,59,208,38,165,39,304,38,174,46,260,39*64
$BDGSV,3,3,12,175,19,59,35,178,46,177,30,180,71,56,45,184,70,26,40*53
$GAGSV,2,1,5,12,86,80,30,24,83,292,41,25,26,314,39,31,44,138,22*6E
$GAGSV,2,2,5,33,32,45,42*5B
$GPRMC,064429.00,A,3956.9413417,N,11620.1615124,E,31.04,150.41,070422,,,A*63
$GPGGA,064429.00,3956.9413417,N,11620.1615124,E,1,21,0.8,50.226,M,0.000,M,0.0,0000*43
$GPGSA,A,3,1,8,17,19,21,30,,,,,,,1.41,0.81,0.51*0C
$GLGSA,A,3,46,52,54,55,,,,,,,,,1.41,0.81,0.51*13
$BDGSA,A,3,147,152,164,165,174,175,180,184,,,,,1.41,0.81,0.51*1A
$GAGSA,A,3,24,25,33,,,,,,,,,,1.41,0.81,0.51*1B
$GPGSV,2,1,7,1,73,71,43,8,21,74,39,14,,,,17,37,278,34*76
$GPGSV,2,2,7,19,17,267,28,21,40,49,39,30,39,224,34*43
$GLGSV,2,1,5,46,22,327,46,52,41,163,31,54,32,36,42,55,70,328,47*6F
$GLGSV,2,2,5,56,,,*53
$BDGSV,3,1,12,147,84,27,37,148,,,,150,,,,151,25,251,27*5E
$BDGSV,3,2,12,152,72,295,34,164,59,208,38,165,39,304,38,174,46,260,39*64
$BDGSV,3,3,12,175,19,59,35,178,46,177,31,180,71,56,45,184,70,26,41*53
$GAGSV,2,1,5,12,86,80,30,24,83,292,41,25,26,314,39,31,44,138,27*6B
$GAGSV,2,2,5,33,32,45,43*5A

$GPRMC,064630.00,A,3956.9309422,N,11620.1572977,E,103.84,351.89,070422,,,A*50
$GPGGA,064630.00,3956.9309422,N,11620.1572977,E,1,21,1.0,53.283,M,0.000,M,0.0,0000*4A
$GPGSA,A,3,1,14,17,19,21,30,,,,,,,1.56,0.96,0.60*33
$GLGSA,A,3,54,55,,,,,,,,,,,1.56,0.96,0.60*14
$BDGSA,A,3,147,150,151,152,164,174,178,180,184,,,,1.56,0.96,0.60*26
$GAGSA,A,3,12,24,25,33,,,,,,,,,1.56,0.96,0.60*1A
$GPGSV,2,1,7,1,73,68,36,8,21,74,30,14,64,313,44,17,38,279,44*4F
$GPGSV,2,2,7,19,18,268,28,21,40,49,45,30,38,223,30*4A
$GLGSV,1,1,3,54,31,37,46,55,70,331,47,56,40,248,31*5D
$BDGSV,3,1,11,147,84,30,48,150,74,315,41,151,26,251,36,152,72,297,36*56
$BDGSV,3,2,11,164,58,207,35,165,,,,174,46,261,45,175,,,*61
$BDGSV,3,3,11,178,46,177,31,180,71,57,45,184,69,28,53*65
$GAGSV,2,1,6,11,36,222,31,12,86,70,47,24,84,287,47,25,27,314,36*64
$GAGSV,2,2,6,31,43,139,27,33,31,45,40*62
$GPRMC,064631.00,A,3956.9308461,N,11620.1573463,E,1.86,0.00,070422,,,A*59
$GPGGA,064631.00,3956.9308461,N,11620.1573463,E,1,21,1.0,53.332,M,0.000,M,0.0,0000*4F
$GPGSA,A,3,1,14,17,19,21,30,,,,,,,1.56,0.96,0.60*33
$GLGSA,A,3,54,55,,,,,,,,,,,1.56,0.96,0.60*14
$BDGSA,A,3,147,150,151,152,164,174,178,180,184,,,,1.56,0.96,0.60*26
$GAGSA,A,3,12,24,25,33,,,,,,,,,1.56,0.96,0.60*1A
$GPGSV,2,1,7,1,73,68,35,8,21,74,28,14,64,313,44,17,38,279,43*42
$GPGSV,2,2,7,19,18,268,32,21,40,49,45,30,38,223,30*41
$GLGSV,1,1,4,46,23,327,22,54,31,37,45,55,70,331,48,56,40,248,30*62
$BDGSV,3,1,11,147,84,30,48,150,74,315,41,151,26,251,36,152,72,297,36*56
$BDGSV,3,2,11,164,58,207,34,165,,,,174,46,261,45,175,,,*60
$BDGSV,3,3,11,178,46,177,31,180,71,57,45,184,69,28,53*65
$GAGSV,2,1,6,11,36,222,31,12,86,70,47,24,84,286,47,25,27,314,34*67
$GAGSV,2,2,6,31,43,139,26,33,31,45,41*62
$GPRMC,064632.00,A,3956.9308204,N,11620.1573771,E,1.40,0.00,070422,,,A*55
$GPGGA,064632.00,3956.9308204,N,11620.1573771,E,1,21,1.0,53.216,M,0.000,M,0.0,0000*4E
$GPGSA,A,3,1,14,17,19,21,30,,,,,,,1.56,0.96,0.60*33
$GLGSA,A,3,54,55,,,,,,,,,,,1.56,0.96,0.60*14
$BDGSA,A,3,147,150,151,152,164,174,178,180,184,,,,1.56,0.96,0.60*26
$GAGSA,A,3,12,24,25,33,,,,,,,,,1.56,0.96,0.60*1A
$GPGSV,2,1,7,1,73,68,35,8,21,74,28,14,64,313,44,17,38,279,43*42
$GPGSV,2,2,7,19,18,268,32,21,40,49,45,30,38,223,31*40
$GLGSV,1,1,4,46,23,327,23,54,31,37,45,55,70,331,47,56,40,248,30*6C
$BDGSV,3,1,11,147,84,30,48,150,74,315,41,151,26,251,36,152,72,297,36*56
$BDGSV,3,2,11,164,58,207,34,165,,,,174,46,261,45,175,,,*60
$BDGSV,3,3,11,178,46,177,31,180,71,57,45,184,69,28,53*65
$GAGSV,2,1,6,11,36,222,31,12,86,70,47,24,84,286,47,25,27,314,35*66
$GAGSV,2,2,6,31,43,139,27,33,31,45,40*62
$GPRMC,064633.00,A,3956.9270331,N,11620.1581872,E,99.83,170.66,070422,,,A*64
$GPGGA,064633.00,3956.9270331,N,11620.1581872,E,1,22,2.9,45.789,M,0.000,M,0.0,0000*4A
$GPGSA,A,3,1,14,17,19,21,30,,,,,,,4.18,2.89,0.80*3E
$GLGSA,A,3,54,55,,,,,,,,,,,4.18,2.89,0.80*19
$BDGSA,A,3,147,150,151,152,164,165,174,178,180,184,,,4.18,2.89,0.80*19
$GAGSA,A,3,12,24,25,33,,,,,,,,,4.18,2.89,0.80*17
$GPGSV,2,1,7,1,73,68,33,8,21,74,28,14,64,313,44,17,38,279,42*45
$GPGSV,2,2,7,19,18,268,34,21,39,49,45,30,38,223,30*49
$GLGSV,1,1,4,46,23,327,21,54,31,37,44,55,70,331,48,56,40,248,30*60
$BDGSV,3,1,11,147,84,30,48,150,74,315,41,151,26,251,36,152,72,297,36*56
$BDGSV,3,2,11,164,58,207,33,165,39,303,31,174,46,261,44,175,,,*5E
$BDGSV,3,3,11,178,46,177,31,180,71,57,45,184,69,28,52*64
$GAGSV,2,1,6,11,36,222,31,12,86,70,47,24,84,286,48,25,27,314,33*6F
$GAGSV,2,2,6,31,43,139,27,33,31,45,41*63
$GPRMC,064634.00,A,3956.9271870,N,11620.1581881,E,5.82,359.52,070422,,,A*5A
$GPGGA,064634.00,3956.9271870,N,11620.1581881,E,1,22,2.9,46.308,M,0.000,M,0.0,0000*40
$GPGSA,A,3,1,14,17,19,21,30,,,,,,,4.18,2.90,0.80*36
$GLGSA,A,3,54,55,,,,,,,,,,,4.18,2.90,0.80*11
$BDGSA,A,3,147,150,151,152,164,165,174,178,180,184,,,4.18,2.90,0.80*11
$GAGSA,A,3,12,24,25,33,,,,,,,,,4.18,2.90,0.80*1F
$GPGSV,2,1,7,1,73,68,33,8,21,74,29,14,64,313,44,17,38,279,41*47
$GPGSV,2,2,7,19,18,268,35,21,39,49,45,30,38,223,30*48
$GLGSV,2,1,5,46,23,327,22,52,40,164,21,54,31,37,44,55,70,331,48*68
$GLGSV,2,2,5,56,40,248,30*6A
$BDGSV,3,1,11,147,84,30,48,150,74,315,41,151,26,251,36,152,72,297,36*56
$BDGSV,3,2,11,164,58,207,33,165,39,303,31,174,46,261,44,175,,,*5E
$BDGSV,3,3,11,178,46,177,32,180,71,57,45,184,69,28,52*67
$GAGSV,2,1,6,11,36,222,30,12,86,70,47,24,84,286,48,25,27,314,33*6E
$GAGSV,2,2,6,31,43,139,27,33,31,45,41*63
$GPRMC,064635.00,A,3956.9298614,N,11620.1579166,E,80.47,355.49,070422,,,A*65
$GPGGA,064635.00,3956.9298614,N,11620.1579166,E,1,22,0.9,52.915,M,0.000,M,0.0,0000*4C
$GPGSA,A,3,1,14,17,19,21,30,,,,,,,1.54,0.92,0.57*31
$GLGSA,A,3,54,55,,,,,,,,,,,1.54,0.92,0.57*16
$BDGSA,A,3,147,150,151,152,164,165,174,178,180,184,,,1.54,0.92,0.57*16
$GAGSA,A,3,12,24,25,33,,,,,,,,,1.54,0.92,0.57*18
$GPGSV,2,1,7,1,73,68,32,8,21,74,29,14,64,313,44,17,38,279,41*46
$GPGSV,2,2,7,19,18,268,35,21,39,49,45,30,38,223,32*4A
$GLGSV,1,1,4,46,23,327,23,54,31,37,44,55,70,331,48,56,40,248,29*6A
$BDGSV,3,1,11,147,84,30,48,150,74,315,41,151,26,251,36,152,72,297,37*57
$BDGSV,3,2,11,164,58,207,34,165,39,303,30,174,46,261,44,175,,,*58
$BDGSV,3,3,11,178,46,177,31,180,71,57,45,184,69,28,52*64
$GAGSV,2,1,6,11,36,222,30,12,86,70,47,24,84,286,48,25,27,314,34*69
$GAGSV,2,2,6,31,43,139,25,33,31,45,41*61
$GPRMC,064636.00,A,3956.9297839,N,11620.1579117,E,4.42,184.04,070422,,,A*50
$GPGGA,064636.00,3956.9297839,N,11620.1579117,E,1,22,1.0,53.330,M,0.000,M,0.0,0000*43
$GPGSA,A,3,1,14,17,19,21,30,,,,,,,1.66,0.96,0.61*31
$GLGSA,A,3,54,55,,,,,,,,,,,1.66,0.96,0.61*16
$BDGSA,A,3,147,150,151,152,164,165,174,178,180,184,,,1.66,0.96,0.61*16
$GAGSA,A,3,12,24,25,33,,,,,,,,,1.66,0.96,0.61*18
$GPGSV,2,1,7,1,73,68,34,8,21,75,29,14,64,313,45,17,38,279,42*43
$GPGSV,2,2,7,19,18,268,34,21,39,49,45,30,38,223,32*4B
$GLGSV,1,1,4,46,23,327,27,54,31,37,44,55,70,331,48,56,40,248,30*66
$BDGSV,3,1,11,147,84,30,48,150,74,315,41,151,26,251,35,152,72,297,37*54
$BDGSV,3,2,11,164,58,207,34,165,39,303,30,174,46,261,45,175,18,59,20*5E
$BDGSV,3,3,11,178,46,177,31,180,71,57,45,184,69,28,53*65
$GAGSV,2,1,6,11,36,222,31,12,86,70,47,24,84,286,47,25,27,314,35*66
$GAGSV,2,2,6,31,43,139,26,33,31,45,40*63
$GPRMC,064637.00,A,3956.9297507,N,11620.1579200,E,0.44,0.00,070422,,,A*5F
$GPGGA,064637.00,3956.9297507,N,11620.1579200,E,1,22,1.0,53.328,M,0.000,M,0.0,0000*4E
$GPGSA,A,3,1,14,17,19,21,30,,,,,,,1.66,0.96,0.61*31
$GLGSA,A,3,54,55,,,,,,,,,,,1.66,0.96,0.61*16
$BDGSA,A,3,147,150,151,152,164,165,174,178,180,184,,,1.66,0.96,0.61*16
$GAGSA,A,3,12,24,25,33,,,,,,,,,1.66,0.96,0.61*18
$GPGSV,2,1,7,1,73,68,32,8,21,75,29,14,64,313,45,17,38,279,41*46
$GPGSV,2,2,7,19,18,268,35,21,39,49,45,30,38,223,32*4A
$GLGSV,1,1,4,46,23,327,27,54,31,37,44,55,70,331,48,56,40,248,29*6E
$BDGSV,3,1,12,147,84,30,48,148,,,,150,74,315,41,151,26,251,36*62
$BDGSV,3,2,12,152,72,298,37,164,58,207,34,165,39,303,29,174,46,261,44*64
$BDGSV,3,3,12,175,18,59,20,178,46,177,32,180,71,57,45,184,69,28,52*50
$GAGSV,2,1,6,11,36,222,30,12,86,70,47,24,84,286,47,25,27,314,34*66
$GAGSV,2,2,6,31,43,139,26,33,31,45,40*63
$GPRMC,064638.00,A,3956.9263747,N,11620.1584316,E,96.11,173.35,070422,,,A*65
$GPGGA,064638.00,3956.9263747,N,11620.1584316,E,1,22,2.9,45.634,M,0.000,M,0.0,0000*4D
$GPGSA,A,3,1,14,17,19,21,30,,,,,,,4.18,2.90,0.80*36
$GLGSA,A,3,54,55,,,,,,,,,,,4.18,2.90,0.80*11
$BDGSA,A,3,147,150,151,152,164,165,174,178,180,184,,,4.18,2.90,0.80*11
$GAGSA,A,3,12,24,25,33,,,,,,,,,4.18,2.90,0.80*1F
$GPGSV,2,1,7,1,73,68,32,8,21,75,28,14,64,313,46,17,38,279,41*44
$GPGSV,2,2,7,19,18,268,35,21,39,49,45,30,38,223,32*4A
$GLGSV,2,1,5,46,23,327,28,52,,,,54,31,37,44,55,70,331,48*56
$GLGSV,2,2,5,56,40,248,29*62
$BDGSV,3,1,12,147,84,30,48,148,,,,150,74,315,42,151,26,251,35*62
$BDGSV,3,2,12,152,72,298,37,164,58,207,35,165,39,303,28,174,46,261,44*64
$BDGSV,3,3,12,175,18,59,20,178,46,177,32,180,71,57,45,184,69,28,53*51
$GAGSV,2,1,6,11,36,222,30,12,86,70,47,24,84,286,47,25,27,314,35*67
$GAGSV,2,2,6,31,43,139,26,33,31,45,40*63
$GPRMC,064639.00,A,3956.9302702,N,11620.1577027,E,103.72,351.67,070422,,,A*53
$GPGGA,064639.00,3956.9302702,N,11620.1577027,E,1,21,1.0,53.364,M,0.000,M,0.0,0000*48
$GPGSA,A,3,1,14,17,19,21,30,,,,,,,1.56,0.96,0.60*33
$GLGSA,A,3,54,55,,,,,,,,,,,1.56,0.96,0.60*14
$BDGSA,A,3,147,150,151,152,164,174,178,180,184,,,,1.56,0.96,0.60*26
$GAGSA,A,3,12,24,25,33,,,,,,,,,1.56,0.96,0.60*1A
$GPGSV,2,1,7,1,73,68,31,8,21,75,28,14,64,313,45,17,38,279,40*45
$GPGSV,2,2,7,19,18,268,36,21,39,49,44,30,38,223,32*48
$GLGSV,2,1,5,46,23,327,26,52,,,,54,31,37,43,55,70,331,49*5E
$GLGSV,2,2,5,56,40,248,28*63
$BDGSV,3,1,12,147,84,30,48,148,,,,150,74,315,41,151,26,251,35*61
$BDGSV,3,2,12,152,72,298,37,164,58,207,34,165,,,,174,46,261,44*55
$BDGSV,3,3,12,175,18,59,23,178,46,177,32,180,71,57,45,184,69,28,53*52
$GAGSV,2,1,6,11,36,222,30,12,86,70,47,24,84,286,47,25,27,314,35*67
$GAGSV,2,2,6,31,43,139,25,33,31,45,40*60
$GPRMC,064640.00,A,3956.9294430,N,11620.1584213,E,17.59,146.21,070422,,,A*63
$GPGGA,064640.00,3956.9294430,N,11620.1584213,E,1,22,1.0,53.427,M,0.000,M,0.0,0000*40
$GPGSA,A,3,1,14,17,19,21,30,,,,,,,1.66,0.96,0.61*31
$GLGSA,A,3,54,55,,,,,,,,,,,1.66,0.96,0.61*16
$BDGSA,A,3,147,150,151,152,164,165,174,178,180,184,,,1.66,0.96,0.61*16
$GAGSA,A,3,12,24,25,33,,,,,,,,,1.66,0.96,0.61*18
$GPGSV,2,1,7,1,73,68,32,8,21,75,28,14,64,313,46,17,38,279,40*45
$GPGSV,2,2,7,19,18,268,37,21,39,49,44,30,38,223,30*4B
$GLGSV,2,1,5,46,23,326,29,52,,,,54,31,37,42,55,70,331,49*51
$GLGSV,2,2,5,56,40,248,28*63
$BDGSV,3,1,12,147,84,30,48,148,,,,150,74,315,41,151,26,251,35*61
$BDGSV,3,2,12,152,72,298,37,164,58,207,32,165,39,303,26,174,46,261,44*6D
$BDGSV,3,3,12,175,18,59,23,178,46,177,32,180,71,57,45,184,69,28,53*52
$GAGSV,2,1,6,11,36,222,30,12,86,70,47,24,84,286,47,25,27,314,35*67
$GAGSV,2,2,6,31,43,139,26,33,31,45,40*63
$GPRMC,064641.00,A,3956.9288202,N,11620.1581756,E,33.24,197.12,070422,,,A*69
$GPGGA,064641.00,3956.9288202,N,11620.1581756,E,1,22,1.9,50.217,M,0.000,M,0.0,0000*45
$GPGSA,A,3,1,14,17,19,21,30,,,,,,,2.52,1.90,0.79*3B
$GLGSA,A,3,54,55,,,,,,,,,,,2.52,1.90,0.79*1C
$BDGSA,A,3,147,150,151,152,164,165,174,178,180,184,,,2.52,1.90,0.79*1C
$GAGSA,A,3,12,24,25,33,,,,,,,,,2.52,1.90,0.79*12
$GPGSV,2,1,7,1,73,68,31,8,21,75,25,14,64,313,44,17,38,279,35*4B
$GPGSV,2,2,7,19,18,268,39,21,39,49,43,30,38,223,28*4B
$GLGSV,1,1,4,46,23,326,27,54,31,37,38,55,70,331,49,56,40,248,28*64
$BDGSV,3,1,12,147,84,30,48,148,,,,150,74,315,41,151,26,251,36*62
$BDGSV,3,2,12,152,72,298,37,164,58,207,29,165,39,303,23,174,46,261,43*65
$BDGSV,3,3,12,175,18,59,27,178,46,177,32,180,71,57,44,184,69,28,51*55
$GAGSV,2,1,6,11,36,222,29,12,86,69,47,24,84,286,48,25,27,314,30*6D
$GAGSV,2,2,6,31,43,139,27,33,31,45,41*63
$GPRMC,064642.00,A,3956.9309732,N,11620.1574178,E,49.94,344.98,070422,,,A*6C
$GPGGA,064642.00,3956.9309732,N,11620.1574178,E,1,21,0.9,53.274,M,0.000,M,0.0,0000*4C
$GPGSA,A,3,1,14,17,19,21,30,,,,,,,1.47,0.95,0.58*3B
$GLGSA,A,3,54,55,,,,,,,,,,,1.47,0.95,0.58*1C
$BDGSA,A,3,147,150,151,152,164,174,178,180,184,,,,1.47,0.95,0.58*2E
$GAGSA,A,3,12,24,25,33,,,,,,,,,1.47,0.95,0.58*12
$GPGSV,2,1,7,1,73,68,32,8,21,75,24,14,64,313,45,17,38,279,36*4B
$GPGSV,2,2,7,19,18,268,39,21,39,49,44,30,38,223,31*44
$GLGSV,1,1,4,46,23,326,27,54,31,37,40,55,70,331,50,56,40,248,28*63
$BDGSV,3,1,12,147,84,30,48,148,,,,150,74,315,41,151,26,251,36*62
$BDGSV,3,2,12,152,72,298,37,164,58,207,31,165,39,303,24,174,46,261,43*6B
$BDGSV,3,3,12,175,18,59,26,178,47,177,32,180,71,57,45,184,69,28,52*57
$GAGSV,2,1,6,11,36,222,30,12,86,69,47,24,84,286,47,25,27,314,32*68
$GAGSV,2,2,6,31,43,139,26,33,31,45,41*62
$GPRMC,064643.00,A,3956.9288112,N,11620.1581713,E,50.97,164.88,070422,,,A*6A
$GPGGA,064643.00,3956.9288112,N,11620.1581713,E,1,21,1.9,50.057,M,0.000,M,0.0,0000*41
$GPGSA,A,3,1,14,17,19,21,30,,,,,,,2.52,1.90,0.79*3B
$GLGSA,A,3,54,55,,,,,,,,,,,2.52,1.90,0.79*1C
$BDGSA,A,3,147,150,151,152,164,174,178,180,184,,,,2.52,1.90,0.79*2E
$GAGSA,A,3,12,24,25,33,,,,,,,,,2.52,1.90,0.79*12
$GPGSV,2,1,7,1,73,68,33,8,21,75,25,14,64,313,46,17,38,279,39*47
$GPGSV,2,2,7,19,18,268,38,21,39,49,44,30,38,223,29*4C
$GLGSV,1,1,4,46,23,326,29,54,31,37,40,55,70,331,49,56,40,248,27*6A
$BDGSV,3,1,12,147,84,30,48,148,,,,150,74,315,42,151,26,251,36*61
$BDGSV,3,2,12,152,72,298,37,164,58,207,33,165,39,303,27,174,46,261,43*6A
$BDGSV,3,3,12,175,18,59,24,178,47,177,33,180,71,57,45,184,69,28,53*55
$GAGSV,2,1,6,11,36,222,31,12,86,69,47,24,84,286,47,25,27,314,34*6F
$GAGSV,2,2,6,31,43,139,26,33,31,45,40*63
$GPRMC,064644.00,A,3956.9285338,N,11620.1586835,E,8.77,124.83,070422,,,A*5A
$GPGGA,064644.00,3956.9285338,N,11620.1586835,E,1,21,1.9,50.241,M,0.000,M,0.0,0000*48
$GPGSA,A,3,1,14,17,19,21,30,,,,,,,2.57,1.93,0.85*3E
$GLGSA,A,3,54,55,,,,,,,,,,,2.57,1.93,0.85*19
$BDGSA,A,3,147,150,151,152,164,174,178,180,184,,,,2.57,1.93,0.85*2B
$GAGSA,A,3,12,24,25,33,,,,,,,,,2.57,1.93,0.85*17
$GPGSV,2,1,7,1,73,68,33,8,21,75,25,14,64,313,46,17,38,279,37*49
$GPGSV,2,2,7,19,18,268,39,21,39,49,44,30,38,223,28*4C
$GLGSV,2,1,5,46,23,326,30,52,40,164,28,54,31,37,39,55,70,331,50*60
$GLGSV,2,2,5,56,40,248,28*63
$BDGSV,3,1,12,147,84,30,48,148,,,,150,74,315,41,151,26,251,36*62
$BDGSV,3,2,12,152,72,298,37,164,58,207,32,165,39,303,25,174,46,261,43*69
$BDGSV,3,3,12,175,18,59,27,178,47,177,32,180,71,57,44,184,69,28,52*57
$GAGSV,2,1,6,11,36,222,30,12,86,69,47,24,84,286,47,25,27,314,34*6E
$GAGSV,2,2,6,31,43,139,26,33,31,45,40*63
$GPRMC,064645.00,A,3956.9310509,N,11620.1576536,E,59.69,342.53,070422,,,A*67
$GPGGA,064645.00,3956.9310509,N,11620.1576536,E,1,21,1.0,53.977,M,0.000,M,0.0,0000*45
$GPGSA,A,3,1,14,17,19,21,30,,,,,,,1.52,0.97,0.63*35
$GLGSA,A,3,54,55,,,,,,,,,,,1.52,0.97,0.63*12
$BDGSA,A,3,147,150,151,152,164,174,178,180,184,,,,1.52,0.97,0.63*20
$GAGSA,A,3,12,24,25,33,,,,,,,,,1.52,0.97,0.63*1C
$GPGSV,2,1,7,1,73,68,33,8,21,75,25,14,64,313,46,17,38,279,36*48
$GPGSV,2,2,7,19,18,268,39,21,39,49,43,30,38,223,28*4B
$GLGSV,2,1,5,46,23,326,30,52,40,164,27,54,31,37,38,55,70,331,50*6E
$GLGSV,2,2,5,56,40,248,28*63
$BDGSV,3,1,12,147,84,30,48,148,,,,150,74,315,41,151,26,251,36*62
$BDGSV,3,2,12,152,72,298,36,164,58,207,32,165,,,,174,46,261,42*54
$BDGSV,3,3,12,175,18,59,28,178,47,177,32,180,71,57,44,184,69,28,52*58
$GAGSV,2,1,6,11,36,222,30,12,86,69,47,24,84,286,47,25,27,314,33*69
$GAGSV,2,2,6,31,43,139,26,33,31,45,40*63
$GPRMC,064646.00,A,3956.9308850,N,11620.1577259,E,4.76,160.60,070422,,,A*57
$GPGGA,064646.00,3956.9308850,N,11620.1577259,E,1,21,1.1,54.344,M,0.000,M,0.0,0000*4D
$GPGSA,A,3,1,14,17,19,21,30,,,,,,,1.71,1.05,0.71*3D
$GLGSA,A,3,54,55,,,,,,,,,,,1.71,1.05,0.71*1A
$BDGSA,A,3,147,150,151,152,164,174,178,180,184,,,,1.71,1.05,0.71*28
$GAGSA,A,3,12,24,25,33,,,,,,,,,1.71,1.05,0.71*14
$GPGSV,2,1,7,1,73,68,33,8,21,75,23,14,64,313,46,17,38,279,38*40
$GPGSV,2,2,7,19,18,268,38,21,39,49,43,30,38,223,29*4B
$GLGSV,2,1,5,46,23,326,32,52,40,164,28,54,31,37,40,55,70,331,49*64
$GLGSV,2,2,5,56,40,248,28*63
$BDGSV,3,1,12,147,84,30,48,148,,,,150,74,315,41,151,26,251,35*61
$BDGSV,3,2,12,152,72,298,36,164,58,207,33,165,39,303,25,174,46,261,43*69
$BDGSV,3,3,12,175,18,59,25,178,47,177,31,180,71,57,44,184,69,28,52*56
$GAGSV,2,1,6,11,36,222,31,12,86,69,47,24,84,286,47,25,27,314,35*6E
$GAGSV,2,2,6,31,43,139,25,33,31,45,40*60
$GPRMC,064647.00,A,3956.9307647,N,11620.1581814,E,7.10,108.72,070422,,,A*55
$GPGGA,064647.00,3956.9307647,N,11620.1581814,E,1,20,1.0,54.561,M,0.000,M,0.0,0000*40
$GPGSA,A,3,14,17,19,21,30,,,,,,,,1.53,0.98,0.64*0D
$GLGSA,A,3,54,55,,,,,,,,,,,1.53,0.98,0.64*1B
$BDGSA,A,3,147,150,151,152,164,174,178,180,184,,,,1.53,0.98,0.64*29
$GAGSA,A,3,12,24,25,33,,,,,,,,,1.53,0.98,0.64*15
$GPGSV,2,1,7,1,,,,8,21,75,22,14,64,313,47,17,38,279,39*4B
$GPGSV,2,2,7,19,18,268,38,21,39,49,44,30,38,223,27*42
$GLGSV,2,1,5,46,23,326,32,52,40,164,29,54,31,37,41,55,70,331,49*64
$GLGSV,2,2,5,56,40,248,27*6C
$BDGSV,3,1,12,147,84,30,48,148,,,,150,74,315,41,151,26,251,34*60
$BDGSV,3,2,12,152,72,298,36,164,58,207,34,165,39,303,24,174,46,261,43*6F
$BDGSV,3,3,12,175,18,59,22,178,47,177,31,180,71,57,45,184,69,28,53*51
$GAGSV,2,1,6,11,36,222,31,12,86,69,47,24,84,286,47,25,27,314,37*6C
$GAGSV,2,2,6,31,43,139,25,33,31,45,39*6E
$GPRMC,064648.00,A,3956.9308881,N,11620.1581779,E,4.54,1.39,070422,,,A*51
$GPGGA,064648.00,3956.9308881,N,11620.1581779,E,1,20,1.0,54.983,M,0.000,M,0.0,0000*40
$GPGSA,A,3,14,17,19,21,30,,,,,,,,1.53,0.98,0.64*0D
$GLGSA,A,3,54,55,,,,,,,,,,,1.53,0.98,0.64*1B
$BDGSA,A,3,147,150,151,152,164,174,178,180,184,,,,1.53,0.98,0.64*29
$GAGSA,A,3,12,24,25,33,,,,,,,,,1.53,0.98,0.64*15
$GPGSV,2,1,7,1,,,,8,21,75,22,14,64,313,47,17,38,279,38*4A
$GPGSV,2,2,7,19,18,268,38,21,39,49,44,30,38,223,25*40
$GLGSV,2,1,5,46,23,326,31,52,40,164,28,54,31,37,40,55,70,331,49*67
$GLGSV,2,2,5,56,40,248,28*63
$BDGSV,3,1,12,147,84,30,47,148,,,,150,74,315,41,151,26,251,35*6E
$BDGSV,3,2,12,152,72,298,35,164,58,207,34,165,39,303,24,174,46,261,43*6C
$BDGSV,3,3,12,175,18,59,24,178,47,177,32,180,71,57,44,184,69,28,52*54
$GAGSV,2,1,6,11,36,222,31,12,86,69,47,24,84,286,47,25,27,314,37*6C
$GAGSV,2,2,6,31,43,139,25,33,31,45,39*6E
$GPRMC,064649.00,A,3956.9310660,N,11620.1580684,E,4.37,335.73,070422,,,A*55
$GPGGA,064649.00,3956.9310660,N,11620.1580684,E,1,20,1.0,55.250,M,0.000,M,0.0,0000*4F
$GPGSA,A,3,14,17,19,21,30,,,,,,,,1.53,0.98,0.64*0D
$GLGSA,A,3,54,55,,,,,,,,,,,1.53,0.98,0.64*1B
$BDGSA,A,3,147,150,151,152,164,174,178,180,184,,,,1.53,0.98,0.64*29
$GAGSA,A,3,12,24,25,33,,,,,,,,,1.53,0.98,0.64*15
$GPGSV,2,1,7,1,,,,8,21,75,23,14,64,313,47,17,38,279,37*44
$GPGSV,2,2,7,19,18,268,38,21,39,49,44,30,38,223,25*40
$GLGSV,2,1,5,46,23,326,32,52,40,164,27,54,31,37,41,55,70,331,49*6A
$GLGSV,2,2,5,56,40,248,28*63
$BDGSV,3,1,12,147,84,30,47,148,,,,150,74,315,41,151,26,252,35*6D
$BDGSV,3,2,12,152,73,298,35,164,58,207,34,165,,,,174,46,261,43*51
$BDGSV,3,3,12,175,18,59,24,178,47,177,32,180,71,57,44,184,69,28,52*54
$GAGSV,2,1,6,11,36,222,32,12,86,69,47,24,84,286,47,25,27,314,37*6F
$GAGSV,2,2,6,31,43,139,25,33,31,45,39*6E
$GPRMC,064650.00,A,3956.9311606,N,11620.1579490,E,2.53,317.63,070422,,,A*58
$GPGGA,064650.00,3956.9311606,N,11620.1579490,E,1,20,1.0,55.228,M,0.000,M,0.0,0000*48
$GPGSA,A,3,14,17,19,21,30,,,,,,,,1.53,0.98,0.64*0D
$GLGSA,A,3,54,55,,,,,,,,,,,1.53,0.98,0.64*1B
$BDGSA,A,3,147,150,151,152,164,174,178,180,184,,,,1.53,0.98,0.64*29
$GAGSA,A,3,12,24,25,33,,,,,,,,,1.53,0.98,0.64*15
$GPGSV,2,1,7,1,,,,8,21,75,21,14,64,313,47,17,38,279,36*47
$GPGSV,2,2,7,19,18,268,38,21,39,49,44,30,38,223,27*42
$GLGSV,2,1,5,46,23,326,32,52,40,164,25,54,31,37,40,55,70,331,49*69
$GLGSV,2,2,5,56,40,248,27*6C
$BDGSV,3,1,12,147,84,30,47,148,,,,150,74,315,41,151,26,252,34*6C
$BDGSV,3,2,12,152,73,298,35,164,58,207,35,165,,,,174,46,261,42*51
$BDGSV,3,3,12,175,18,59,23,178,47,177,31,180,71,57,44,184,69,28,52*50
$GAGSV,2,1,6,11,36,222,32,12,86,69,47,24,84,286,47,25,27,314,37*6F
$GAGSV,2,2,6,31,43,139,24,33,31,45,39*6F
$GPRMC,064651.00,A,3956.9312039,N,11620.1579358,E,1.08,0.00,070422,,,A*5E
$GPGGA,064651.00,3956.9312039,N,11620.1579358,E,1,20,1.0,55.175,M,0.000,M,0.0,0000*48
$GPGSA,A,3,14,17,19,21,30,,,,,,,,1.53,0.98,0.64*0D
$GLGSA,A,3,54,55,,,,,,,,,,,1.53,0.98,0.64*1B
$BDGSA,A,3,147,150,151,152,164,174,178,180,184,,,,1.53,0.98,0.64*29
$GAGSA,A,3,12,24,25,33,,,,,,,,,1.53,0.98,0.64*15
$GPGSV,2,1,7,1,,,,8,21,75,18,14,64,313,48,17,38,279,37*43
$GPGSV,2,2,7,19,18,268,38,21,39,48,44,30,38,223,27*43
$GLGSV,2,1,5,46,23,326,32,52,40,164,26,54,31,37,41,55,70,331,49*6B
$GLGSV,2,2,5,56,40,248,28*63
$BDGSV,3,1,12,147,84,30,47,148,,,,150,74,315,41,151,26,252,34*6C
$BDGSV,3,2,12,152,73,298,35,164,58,207,35,165,,,,174,46,261,43*50
$BDGSV,3,3,12,175,18,59,23,178,47,177,32,180,71,57,44,184,69,28,52*53
$GAGSV,2,1,6,11,36,222,33,12,86,69,47,24,84,285,47,25,27,314,37*6D
$GAGSV,2,2,6,31,43,139,23,33,31,45,39*68
$GPRMC,064652.00,A,3956.9313385,N,11620.1578662,E,3.46,337.07,070422,,,A*5D
$GPGGA,064652.00,3956.9313385,N,11620.1578662,E,1,20,1.0,55.392,M,0.000,M,0.0,0000*48
$GPGSA,A,3,14,17,19,21,30,,,,,,,,1.53,0.98,0.64*0D
$GLGSA,A,3,54,55,,,,,,,,,,,1.53,0.98,0.64*1B
$BDGSA,A,3,147,150,151,152,164,174,178,180,184,,,,1.53,0.98,0.64*29
$GAGSA,A,3,12,24,25,33,,,,,,,,,1.53,0.98,0.64*15
$GPGSV,2,1,7,1,,,,8,,,,14,64,313,48,17,38,279,34*48
$GPGSV,2,2,7,19,18,268,39,21,39,48,44,30,38,223,25*40
$GLGSV,2,1,5,46,23,326,32,52,40,164,28,54,31,37,38,55,70,331,50*63
$GLGSV,2,2,5,56,40,248,29*62
$BDGSV,3,1,12,147,84,30,47,148,,,,150,74,315,41,151,26,252,35*6D
$BDGSV,3,2,12,152,73,298,35,164,58,207,35,165,,,,174,46,261,43*50
$BDGSV,3,3,12,175,18,60,27,178,47,177,32,180,71,57,44,184,69,28,52*5D
$GAGSV,2,1,6,11,36,222,32,12,86,69,47,24,84,285,47,25,27,314,37*6C
$GAGSV,2,2,6,31,43,139,25,33,31,45,39*6E
$GPRMC,064653.00,A,3956.9313382,N,11620.1576636,E,7.66,270.08,070422,,,A*5F
$GPGGA,064653.00,3956.9313382,N,11620.1576636,E,1,19,1.1,54.648,M,0.000,M,0.0,0000*49
$GPGSA,A,3,14,17,19,21,30,,,,,,,,1.68,1.05,0.72*07
$GLGSA,A,3,55,,,,,,,,,,,,1.68,1.05,0.72*10
$BDGSA,A,3,147,150,151,152,164,174,178,180,184,,,,1.68,1.05,0.72*23
$GAGSA,A,3,12,24,25,33,,,,,,,,,1.68,1.05,0.72*1F
$GPGSV,2,1,7,1,,,,8,21,75,25,14,64,313,47,17,38,279,24*40
$GPGSV,2,2,7,19,18,268,41,21,39,48,43,30,38,223,23*4E
$GLGSV,2,1,5,46,23,326,31,52,40,164,28,54,,,,55,70,331,51*6C
$GLGSV,2,2,5,56,40,248,30*6A
$BDGSV,3,1,11,147,84,30,48,150,74,315,41,151,26,252,36,152,73,298,35*58
$BDGSV,3,2,11,164,58,207,33,165,,,,174,46,261,43,175,18,60,32*6F
$BDGSV,3,3,11,178,47,177,33,180,71,57,44,184,69,28,50*64
$GAGSV,2,1,6,11,36,222,31,12,86,69,47,24,84,285,47,25,27,314,35*6D
$GAGSV,2,2,6,31,43,139,27,33,31,45,40*62
$GPRMC,064654.00,A,3956.9321205,N,11620.1576606,E,29.72,359.16,070422,,,A*68
$GPGGA,064654.00,3956.9321205,N,11620.1576606,E,1,18,1.1,57.330,M,0.000,M,0.0,0000*4A
$GPGSA,A,3,1,14,19,21,,,,,,,,,1.69,1.06,0.74*37
$GLGSA,A,3,55,,,,,,,,,,,,1.69,1.06,0.74*14
$BDGSA,A,3,147,150,151,152,164,174,178,180,184,,,,1.69,1.06,0.74*27
$GAGSA,A,3,12,24,25,33,,,,,,,,,1.69,1.06,0.74*1B
$GPGSV,2,1,7,1,73,68,31,8,21,75,28,14,64,313,47,17,,,*74
$GPGSV,2,2,7,19,18,268,41,21,39,48,42,30,38,223,20*4C
$GLGSV,2,1,5,46,23,326,32,52,,,,54,,,,55,70,331,51*52
$GLGSV,2,2,5,56,40,248,28*63
$BDGSV,3,1,11,147,84,30,48,150,74,315,41,151,26,252,36,152,73,298,35*58
$BDGSV,3,2,11,164,58,207,33,165,,,,174,46,261,43,175,18,60,33*6E
$BDGSV,3,3,11,178,47,177,33,180,71,57,44,184,69,28,49*6C
$GAGSV,2,1,6,11,36,222,30,12,86,69,47,24,84,285,48,25,27,314,34*62
$GAGSV,2,2,6,31,43,139,25,33,31,45,39*6E
$GPRMC,064655.00,A,3956.9321110,N,11620.1579362,E,10.02,91.58,070422,,,A*56
$GPGGA,064655.00,3956.9321110,N,11620.1579362,E,1,19,1.0,56.369,M,0.000,M,0.0,0000*49
$GPGSA,A,3,1,14,19,21,,,,,,,,,1.54,1.00,0.66*3C
$GLGSA,A,3,54,55,,,,,,,,,,,1.54,1.00,0.66*1E
$BDGSA,A,3,147,150,151,152,164,174,178,180,184,,,,1.54,1.00,0.66*2C
$GAGSA,A,3,12,24,25,33,,,,,,,,,1.54,1.00,0.66*10
$GPGSV,2,1,7,1,73,68,33,8,,,,14,64,313,46,17,38,279,22*4B
$GPGSV,2,2,7,19,18,268,40,21,39,48,41,30,38,223,23*4D
$GLGSV,2,1,5,46,23,326,32,52,,,,54,31,37,33,55,70,331,51*54
$GLGSV,2,2,5,56,40,248,28*63
$BDGSV,3,1,11,147,84,30,48,150,74,315,40,151,26,252,35,152,73,298,35*5A
$BDGSV,3,2,11,164,58,207,34,165,,,,174,46,261,43,175,18,60,33*69
$BDGSV,3,3,11,178,47,177,32,180,71,57,44,184,69,28,49*6D
$GAGSV,2,1,6,11,36,222,29,12,86,69,47,24,84,285,48,25,27,314,34*6A
$GAGSV,2,2,6,31,,,,33,31,45,39*55
$GPRMC,064656.00,A,3956.9327111,N,11620.1574303,E,13.46,326.94,070422,,,A*64
$GPGGA,064656.00,3956.9327111,N,11620.1574303,E,1,19,1.1,56.756,M,0.000,M,0.0,0000*4E
$GPGSA,A,3,1,14,19,21,,,,,,,,,1.62,1.11,0.71*3F
$GLGSA,A,3,54,55,,,,,,,,,,,1.62,1.11,0.71*1D
$BDGSA,A,3,147,150,151,152,164,174,178,180,184,,,,1.62,1.11,0.71*2F
$GAGSA,A,3,12,24,25,33,,,,,,,,,1.62,1.11,0.71*13
$GPGSV,2,1,7,1,73,67,34,8,21,75,27,14,64,313,47,17,38,279,26*42
$GPGSV,2,2,7,19,18,268,40,21,39,48,41,30,38,223,24*4A
$GLGSV,1,1,4,46,23,326,31,54,31,37,30,55,70,331,51,56,40,248,28*62
$BDGSV,3,1,11,147,84,30,47,150,74,315,41,151,26,252,35,152,73,298,35*54
$BDGSV,3,2,11,164,58,207,34,165,,,,174,46,261,43,175,18,60,34*6E
$BDGSV,3,3,11,178,47,177,31,180,71,57,44,184,69,28,50*66
$GAGSV,2,1,6,11,36,222,29,12,86,68,47,24,84,285,48,25,27,314,35*6A
$GAGSV,2,2,6,31,,,,33,31,45,39*55
$GPRMC,064657.00,A,3956.9328302,N,11620.1578454,E,19.51,69.70,070422,,,A*5D
$GPGGA,064657.00,3956.9328302,N,11620.1578454,E,1,19,0.9,58.647,M,0.000,M,0.0,0000*4F
$GPGSA,A,3,14,19,21,,,,,,,,,,1.36,0.93,0.56*01
$GLGSA,A,3,54,55,,,,,,,,,,,1.36,0.93,0.56*12
$BDGSA,A,3,147,150,151,152,164,174,175,178,180,184,,,1.36,0.93,0.56*13
$GAGSA,A,3,12,24,25,33,,,,,,,,,1.36,0.93,0.56*1C
$GPGSV,2,1,7,1,,,,8,21,75,27,14,64,313,48,17,38,279,26*4F
$GPGSV,2,2,7,19,18,268,40,21,39,48,42,30,38,223,22*4F
$GLGSV,1,1,4,46,23,326,32,54,31,37,32,55,70,331,51,56,40,248,28*63
$BDGSV,3,1,11,147,84,30,48,150,74,315,41,151,26,252,35,152,73,298,35*5B
$BDGSV,3,2,11,164,58,207,35,165,39,303,32,174,46,261,43,175,18,60,33*53
$BDGSV,3,3,11,178,47,177,30,180,71,57,44,184,69,28,50*67
$GAGSV,2,1,6,11,36,222,29,12,86,68,47,24,84,285,48,25,27,314,36*69
