$GPHCD,05,03,2022,090753.40,0.0000,0.00,0.00,0.02,39.5915683,116.3020114,30.30,0.000,0.000,30.299,2,8*7B
$GPGSV,8,1,24,21,39,048,,3,25,136,42,19,20,270,14,8,18,077,*7E
$GPGSV,8,2,24,30,35,220,32,7,21,196,28*41
$GLGSV,8,3,24,78,37,166,44,82,36,251, 1,81,69,331,25,88,28,039,33*7A
$GLGSV,8,4,24,79,76,265,54*50
$GAGSV,8,5,24,12,51,224,46,1,28,140,31,31,83,179,54*69
$GBGSV,8,6,24,135,36,259,27,130,29,058,11,145,61,238,45,129,75,348,31*64
$GBGSV,8,7,24,136,27,172,42,113,25,195,37,104,27,124,*6B
$GQGSV,8,8,24,195,72,085,35,199,42,164,39,194,49,146,47*72
$GPHCD,05,03,2022,090753.60,0.0000,0.00,0.00,0.02,39.5915684,116.3020115,30.33,0.000,0.000,30.325,2,8*7A
$GPHCD,05,03,2022,090753.80,0.0000,0.00,0.00,0.04,39.5915684,116.3020115,30.34,0.000,0.000,30.344,2,9*73
$GPHCD,05,03,2022,090754.01,0.0000,0.00,0.00,0.02,39.5915684,116.3020116,30.37,0.000,0.000,30.365,2,9*78
$GNRMC,090754.00,A,3959.15684757,N,11630.20116858,E,0.007,0.000,050322,7.1665,W,D*08
$GPGGA,090754.00,3959.15684757,N,11630.20116858,E,2,09,1.6,40.038,M,-9.654,M,1.0,3356*67
$GPHCD,05,03,2022,090754.20,0.0000,0.00,0.00,0.03,39.5915685,116.3020117,30.38,0.000,0.000,30.383,2,9*7D
$GPHCD,05,03,2022,090754.40,0.0000,0.00,0.00,0.03,39.5915685,116.3020118,30.40,0.000,0.000,30.398,2,9*71
$GPGSV,8,1,24,21,39,048,,3,25,136,42,19,20,270,22,8,18,077,*7B
$GPGSV,8,2,24,30,35,220,31,7,21,196,26*4C
$GLGSV,8,3,24,78,37,166,43,82,36,251, 9,81,69,331,23,88,28,039,32*72
$GLGSV,8,4,24,79,76,265,54*50
$GAGSV,8,5,24,12,51,224,45,1,28,140,31,31,83,179,54*6A
$GBGSV,8,6,24,135,36,259,28,130,29,058,15,145,61,238,45,129,75,348,29*66
$GBGSV,8,7,24,136,27,172,43,113,25,195,37,104,27,124,*6A
$GQGSV,8,8,24,195,72,085,34,199,42,164,40,194,49,146,47*7D
$GPHCD,05,03,2022,090754.60,0.0000,0.00,0.00,0.03,39.5915686,116.3020118,30.41,0.000,0.000,30.411,2,9*77
$GPHCD,05,03,2022,090754.80,0.0000,0.00,0.00,0.03,39.5915687,116.3020120,30.42,0.000,0.000,30.423,2,9*71
$GPHCD,05,03,2022,090755.01,0.0000,0.00,0.00,0.03,39.5915687,116.3020121,30.44,0.000,0.000,30.435,2,9*79
$GNRMC,090755.00,A,3959.15687694,N,11630.20121685,E,0.013,281.950,050322,7.1665,W,D*0C
$GPGGA,090755.00,3959.15687694,N,11630.20121685,E,2,09,1.6,40.103,M,-9.654,M,1.0,3356*68
$GPHCD,05,03,2022,090755.20,0.0000,0.00,0.00,0.03,39.5915688,116.3020122,30.45,0.000,0.000,30.449,2,9*7C
$GPHCD,05,03,2022,090755.40,0.0000,0.00,0.00,0.02,39.5915688,116.3020123,30.46,0.000,0.000,30.465,2,9*77
$GPGSV,8,1,24,21,39,048,,3,25,136,42,19,20,270,22,8,18,077,*7B
$GPGSV,8,2,24,30,35,220,31,7,21,196,29*43
$GLGSV,8,3,24,78,37,166,44,82,36,251,10,81,69,331,27,88,28,039,32*69
$GLGSV,8,4,24,79,76,265,54*50
$GAGSV,8,5,24,12,52,224,46,1,28,140,28,31,83,179,54*62
$GBGSV,8,6,24,135,36,259,29,130,29,058,14,145,61,238,45,129,75,348,29*66
$GBGSV,8,7,24,136,27,172,42,113,25,195,37,104,27,124,*6B
$GQGSV,8,8,24,195,72,084,34,199,42,164,41,194,49,146,47*7D
$GPHCD,05,03,2022,090755.60,0.0000,0.00,0.00,0.01,39.5915689,116.3020124,30.49,0.000,0.000,30.487,2,9*73
$GPHCD,05,03,2022,090755.80,0.0000,0.00,0.00,0.01,39.5915689,116.3020125,30.51,0.000,0.000,30.505,2,9*7E
$GPHCD,05,03,2022,090756.01,0.0000,0.00,0.00,0.02,39.5915690,116.3020127,30.52,0.000,0.000,30.524,2,9*7D
$GNRMC,090756.00,A,3959.15689996,N,11630.20128257,E,0.008,0.000,050322,7.1665,W,D*03
$GPGGA,090756.00,3959.15689996,N,11630.20128257,E,2,09,1.6,40.195,M,-9.654,M,1.0,3356*65
$GPHCD,05,03,2022,090756.20,0.0000,0.00,0.00,0.05,39.5915690,116.3020128,30.54,0.000,0.000,30.541,2,9*73
$GPHCD,05,03,2022,090756.40,0.0000,0.00,0.00,0.02,39.5915691,116.3020130,30.55,0.000,0.000,30.551,2,9*7A
$GPGSV,8,1,24,21,39,048,,3,25,136,42,19,20,270,22,8,18,077,*7B
$GPGSV,8,2,24,30,35,220,34,7,21,196,27*48
$GLGSV,8,3,24,78,37,166,44,82,36,251,,81,69,331,27,88,28,039,32*68
$GLGSV,8,4,24,79,76,265,54*50
$GAGSV,8,5,24,12,52,224,46,1,28,140,36,31,83,179,54*6D
$GBGSV,8,6,24,135,36,259,31,130,29,058,14,145,61,238,45,129,75,348,29*6F
$GBGSV,8,7,24,136,27,172,42,113,25,195,37,104,27,124,*6B
$GQGSV,8,8,24,195,72,084,34,199,42,164,40,194,49,146,48*73
$GPHCD,05,03,2022,090756.60,0.0000,0.00,0.00,0.02,39.5915692,116.3020132,30.56,0.000,0.000,30.560,2,9*78
$GPHCD,05,03,2022,090756.80,0.0000,0.00,0.00,0.05,39.5915693,116.3020134,30.56,0.000,0.000,30.557,2,9*72
$GPHCD,05,03,2022,090757.01,0.0000,0.00,0.00,0.03,39.5915694,116.3020136,30.56,0.000,0.000,30.558,2,9*76
$GNRMC,090757.00,A,3959.15694669,N,11630.20138529,E,0.005,0.000,050322,7.1665,W,D*03
$GPGGA,090757.00,3959.15694669,N,11630.20138529,E,2,10,1.6,40.215,M,-9.654,M,1.0,3356*6B
$GPHCD,05,03,2022,090757.20,0.0000,0.00,0.00,0.04,39.5915695,116.3020138,30.56,0.000,0.000,30.560,2,9*76
$GPHCD,05,03,2022,090757.40,0.0000,0.00,0.00,0.05,39.5915696,116.3020141,30.55,0.000,0.000,30.550,2,10*44
$GPGSV,8,1,24,21,39,048,29,3,25,136,42,19,20,270,23,8,18,077,*71
$GPGSV,8,2,24,30,35,220,33,7,21,196,27*4F
$GLGSV,8,3,24,78,37,166,44,82,36,251,,81,69,331,26,88,28,039,31*6A
$GLGSV,8,4,24,79,76,265,53*57
$GAGSV,8,5,24,12,52,224,46,1,28,140,36,31,83,179,54*6D
$GBGSV,8,6,24,135,36,259,29,130,29,058,17,145,61,238,44,129,75,348,28*65
$GBGSV,8,7,24,136,27,172,42,113,25,195,37,104,27,124,*6B
$GQGSV,8,8,24,195,72,084,34,199,42,164,41,194,49,146,48*72
$GPHCD,05,03,2022,090757.60,0.0000,0.00,0.00,0.03,39.5915697,116.3020142,30.56,0.000,0.000,30.557,2,10*46
$GPHCD,05,03,2022,090757.80,0.0000,0.00,0.00,0.05,39.5915698,116.3020145,30.56,0.000,0.000,30.558,2,10*49
$GPHCD,05,03,2022,090758.01,0.0000,0.00,0.00,0.03,39.5915698,116.3020146,30.58,0.000,0.000,30.577,2,10*49
$GNRMC,090758.00,A,3959.15698778,N,11630.20148333,E,0.002,0.000,050322,7.1665,W,D*0C
$GPGGA,090758.00,3959.15698778,N,11630.20148333,E,2,10,1.6,40.248,M,-9.654,M,1.0,3356*6B
$GPHCD,05,03,2022,090758.20,0.0000,0.00,0.00,0.02,39.5915699,116.3020148,30.60,0.000,0.000,30.596,2,10*40
$GPHCD,05,03,2022,090758.40,0.0000,0.00,0.00,0.04,39.5915699,116.3020150,30.62,0.000,0.000,30.619,2,10*4F
$GPGSV,8,1,24,21,39,048,29,3,25,136,43,19,20,270,24,8,18,077,*77
$GPGSV,8,2,24,30,35,220,34,7,21,196,26*49
$GLGSV,8,3,24,78,37,166,44,82,36,251,,81,69,331,28,88,28,039,30*65
$GLGSV,8,4,24,79,76,265,53*57
$GAGSV,8,5,24,12,52,224,46,1,28,140,34,31,83,179,55*6E
$GBGSV,8,6,24,135,36,259,31,130,29,058,17,145,61,238,45,129,75,348,27*62
$GBGSV,8,7,24,136,27,172,42,113,25,195,37,104,27,124,*6B
$GQGSV,8,8,24,195,72,084,34,199,42,164,40,194,49,146,47*7C
$GPHCD,05,03,2022,090758.60,0.0000,0.00,0.00,0.02,39.5915699,116.3020153,30.64,0.000,0.000,30.636,2,10*43
$GPHCD,05,03,2022,090758.80,0.0000,0.00,0.00,0.02,39.5915700,116.3020154,30.65,0.000,0.000,30.648,2,10*43
$GPHCD,05,03,2022,090759.01,0.0000,0.00,0.00,0.03,39.5915700,116.3020156,30.68,0.000,0.000,30.680,2,10*41
$GNRMC,090759.00,A,3959.15700250,N,11630.20156559,E,0.005,0.000,050322,7.1665,W,D*00
$GPGGA,090759.00,3959.15700250,N,11630.20156559,E,2,10,0.9,40.360,M,-9.654,M,1.0,3356*65
$GPHCD,05,03,2022,090759.20,0.0000,0.00,0.00,0.02,39.5915700,116.3020157,30.71,0.000,0.000,30.705,2,10*46
$GPHCD,05,03,2022,090759.40,0.0000,0.00,0.00,0.02,39.5915701,116.3020157,30.72,0.000,0.000,30.721,2,10*44
$GPGSV,8,1,24,21,39,048,29,3,25,136,43,19,20,270,26,8,18,077,*75
$GPGSV,8,2,24,30,35,220,32,7,21,196,29*40
$GLGSV,8,3,24,78,37,166,44,82,36,251,,81,69,332,27,88,28,039,32*6B
$GLGSV,8,4,24,79,76,265,53*57
$GAGSV,8,5,24,12,52,225,46,1,28,140,34,31,83,179,55*6F
$GBGSV,8,6,24,135,36,259,32,130,29,058,17,145,61,238,45,129,75,348,27*61
$GBGSV,8,7,24,136,27,172,43,113,25,195,38,104,27,124,*65
$GQGSV,8,8,24,195,72,084,35,199,42,164,40,194,49,146,47*7D
$GPHCD,05,03,2022,090759.60,0.0000,0.00,0.00,0.04,39.5915701,116.3020158,30.73,0.000,0.000,30.735,2,10*4B
$GPHCD,05,03,2022,090759.80,0.0000,0.00,0.00,0.05,39.5915702,116.3020159,30.74,0.000,0.000,30.743,2,10*40
$GPHCD,05,03,2022,090800.01,0.0000,0.00,0.00,0.04,39.5915702,116.3020160,30.76,0.000,0.000,30.758,2,10*49
$GNRMC,090800.00,A,3959.15702791,N,11630.20161465,E,0.004,0.000,050322,7.1665,W,D*02
$GPGGA,090800.00,3959.15702791,N,11630.20161465,E,2,10,0.9,40.425,M,-9.654,M,1.0,3356*60
$GPHCD,05,03,2022,090800.20,0.0000,0.00,0.00,0.03,39.5915703,116.3020161,30.77,0.000,0.000,30.769,2,10*4E
$GPHCD,05,03,2022,090800.40,0.0000,0.00,0.00,0.07,39.5915702,116.3020162,30.80,0.000,0.000,30.798,2,10*48
$GPGSV,8,1,24,21,39,048,30,3,25,136,44,19,20,270,25,8,18,077,*79
$GPGSV,8,2,24,30,35,220,33,7,21,196,29*41
$GLGSV,8,3,24,78,37,166,44,82,36,251,,81,69,332,28,88,28,039,32*64
$GLGSV,8,4,24,79,76,265,53*57
$GAGSV,8,5,24,12,52,225,47,1,28,140,37,31,83,179,54*6C
$GBGSV,8,6,24,135,36,259,32,130,29,058,17,145,61,238,45,129,75,348,28*6E
$GBGSV,8,7,24,136,27,172,42,113,25,195,38,104,27,124,*64
$GQGSV,8,8,24,195,72,084,33,199,42,164,40,194,49,146,48*74
$GPHCD,05,03,2022,090800.60,0.0000,0.00,0.00,0.05,39.5915702,116.3020162,30.81,0.000,0.000,30.809,2,10*4E
$GPHCD,05,03,2022,090800.80,0.0000,0.00,0.00,0.02,39.5915702,116.3020162,30.82,0.000,0.000,30.824,2,10*4B
$GPHCD,05,03,2022,090801.01,0.0000,0.00,0.00,0.03,39.5915702,116.3020162,30.85,0.000,0.000,30.849,2,10*4E
$GNRMC,090801.00,A,3959.15701956,N,11630.20161507,E,0.014,248.489,050322,7.1665,W,D*0A
$GPGGA,090801.00,3959.15701956,N,11630.20161507,E,2,10,0.9,40.525,M,-9.654,M,1.0,3356*63
$GPHCD,05,03,2022,090801.20,0.0000,0.00,0.00,0.03,39.5915702,116.3020161,30.86,0.000,0.000,30.861,2,10*47
$GPHCD,05,03,2022,090801.40,0.0000,0.00,0.00,0.06,39.5915703,116.3020161,30.87,0.000,0.000,30.865,2,10*40
$GPGSV,8,1,24,21,39,048,29,3,25,136,42,19,20,270,29,8,18,077,*7B
$GPGSV,8,2,24,30,35,220,32,7,21,196,25*4C
$GLGSV,8,3,24,78,37,166,44,82,36,251,,81,69,332,27,88,28,039,32*6B
$GLGSV,8,4,24,79,76,265,53*57
$GAGSV,8,5,24,12,52,225,46,1,28,140,32,31,83,179,54*68
$GBGSV,8,6,24,135,37,259,32,130,29,058,19,145,61,238,45,129,75,348,27*6E
$GBGSV,8,7,24,136,27,172,43,113,25,195,36,104,27,124,*6B
$GQGSV,8,8,24,195,72,084,34,199,42,164,40,194,49,146,47*7C
$GPHCD,05,03,2022,090801.60,0.0000,0.00,0.00,0.06,39.5915704,116.3020161,30.87,0.000,0.000,30.867,2,10*47
$GPHCD,05,03,2022,090801.80,0.0000,0.00,0.00,0.07,39.5915704,116.3020162,30.87,0.000,0.000,30.875,2,10*48
$GPHCD,05,03,2022,090802.01,0.0000,0.00,0.00,0.08,39.5915705,116.3020162,30.89,0.000,0.000,30.886,2,10*4E
$GNRMC,090802.00,A,3959.15704543,N,11630.20162509,E,0.012,342.118,050322,7.1665,W,D*09
$GPGGA,090802.00,3959.15704543,N,11630.20162509,E,2,10,0.9,40.553,M,-9.654,M,1.0,3356*61
$GPHCD,05,03,2022,090802.20,0.0000,0.00,0.00,0.06,39.5915705,116.3020162,30.90,0.000,0.000,30.897,2,10*4B
$GPHCD,05,03,2022,090802.40,0.0000,0.00,0.00,0.02,39.5915704,116.3020163,30.92,0.000,0.000,30.924,2,10*42
$GPGSV,8,1,24,21,39,048,30,3,25,136,43,19,20,270,31,8,18,077,*7B
$GPGSV,8,2,24,30,35,220,31,7,21,196,27*4D
$GLGSV,8,3,24,78,37,166,44,82,36,251,,81,69,332,29,88,28,039,29*6F
$GLGSV,8,4,24,79,76,265,52*56
$GAGSV,8,5,24,12,52,225,46,1,28,140,32,31,83,179,54*68
$GBGSV,8,6,24,135,37,259,32,130,29,058,17,145,61,238,45,129,75,348,29*6E
$GBGSV,8,7,24,136,27,172,42,113,25,195,36,104,27,124,*6A
$GQGSV,8,8,24,195,72,084,34,199,42,164,40,194,49,146,47*7C
$GPHCD,05,03,2022,090802.60,0.0000,0.00,0.00,0.05,39.5915704,116.3020163,30.94,0.000,0.000,30.939,2,10*4D
$GPHCD,05,03,2022,090802.80,0.0000,0.00,0.00,0.03,39.5915703,116.3020163,30.96,0.000,0.000,30.956,2,10*49
$GPHCD,05,03,2022,090803.01,0.0000,0.00,0.00,0.06,39.5915703,116.3020163,30.95,0.000,0.000,30.952,2,10*43
$GNRMC,090803.00,A,3959.15702767,N,11630.20163334,E,0.021,312.562,050322,7.1665,W,D*0F
$GPGGA,090803.00,3959.15702767,N,11630.20163334,E,2,10,0.9,40.613,M,-9.654,M,1.0,3356*6C
$GPHCD,05,03,2022,090803.20,0.0000,0.00,0.00,0.06,39.5915703,116.3020163,30.95,0.000,0.000,30.950,2,10*42
$GPHCD,05,03,2022,090803.40,0.0000,0.00,0.00,0.06,39.5915703,116.3020163,30.96,0.000,0.000,30.956,2,10*41
$GPGSV,8,1,24,21,39,048,30,3,25,136,43,19,20,270,30,8,18,077,*7A
$GPGSV,8,2,24,30,35,220,29,7,21,196,26*45
$GLGSV,8,3,24,78,37,166,44,82,36,251,,81,69,332,26,88,28,039,29*60
$GLGSV,8,4,24,79,76,265,52*56
$GAGSV,8,5,24,12,52,225,46,1,28,140,30,31,83,179,54*6A
$GBGSV,8,6,24,135,37,259,32,130,29,058,18,145,61,238,45,129,75,348,27*6F
$GBGSV,8,7,24,136,27,172,43,113,25,195,38,104,27,124,*65
$GQGSV,8,8,24,195,72,084,34,199,42,164,39,194,49,146,47*72
$GPHCD,05,03,2022,090803.60,0.0000,0.00,0.00,0.07,39.5915702,116.3020163,30.96,0.000,0.000,30.956,2,10*43
$GPHCD,05,03,2022,090803.80,0.0000,0.00,0.00,0.04,39.5915702,116.3020164,30.97,0.000,0.000,30.966,2,10*4B
$GPHCD,05,03,2022,090804.01,0.0000,0.00,0.00,0.06,39.5915701,116.3020164,30.96,0.000,0.000,30.965,2,10*46
$GNRMC,090804.00,A,3959.15700790,N,11630.20164892,E,0.018,296.090,050322,7.1665,W,D*0D
$GPGGA,090804.00,3959.15700790,N,11630.20164892,E,2,10,0.9,40.625,M,-9.654,M,1.0,3356*64
$GPHCD,05,03,2022,090804.20,0.0000,0.00,0.00,0.05,39.5915701,116.3020165,30.97,0.000,0.000,30.967,2,10*44
$GPHCD,05,03,2022,090804.40,0.0000,0.00,0.00,0.06,39.5915701,116.3020166,30.97,0.000,0.000,30.974,2,10*40
$GPGSV,8,1,24,21,39,048,31,3,25,136,43,19,20,270,31,8,18,077,*7A
$GPGSV,8,2,24,30,35,220,31,7,21,196,27*4D
$GLGSV,8,3,24,78,37,166,45,82,36,251,,81,69,332,29,88,28,039,30*66
$GLGSV,8,4,24,79,76,265,53*57
$GAGSV,8,5,24,12,52,225,46,1,28,140,35,31,83,179,54*6F
$GBGSV,8,6,24,135,37,259,32,130,29,058,20,145,61,238,45,129,75,348,29*6A
$GBGSV,8,7,24,136,27,172,44,113,25,195,38,104,27,124,*62
$GQGSV,8,8,24,195,72,084,34,199,42,164,39,194,49,146,48*7D
$GPHCD,05,03,2022,090804.60,0.0000,0.00,0.00,0.06,39.5915700,116.3020167,30.98,0.000,0.000,30.984,2,10*42
$GPHCD,05,03,2022,090804.80,0.0000,0.00,0.00,0.06,39.5915700,116.3020168,30.99,0.000,0.000,30.990,2,10*47
$GPHCD,05,03,2022,090805.01,0.0000,0.00,0.00,0.07,39.5915700,116.3020170,30.99,0.000,0.000,30.988,2,10*4E
$GNRMC,090805.00,A,3959.15700314,N,11630.20171938,E,0.020,352.828,050322,7.1665,W,D*08
$GPGGA,090805.00,3959.15700314,N,11630.20171938,E,2,10,0.9,40.636,M,-9.654,M,1.0,3356*6A
$GPHCD,05,03,2022,090805.20,0.0000,0.00,0.00,0.07,39.5915701,116.3020172,30.97,0.000,0.000,30.974,2,10*43
$GPHCD,05,03,2022,090805.40,0.0000,0.00,0.00,0.05,39.5915700,116.3020174,30.98,0.000,0.000,30.982,2,10*46
$GPGSV,8,1,24,21,39,048,31,3,25,136,43,19,20,270,30,8,18,077,*7B
$GPGSV,8,2,24,30,35,220,31,7,21,196,24*4E
$GLGSV,8,3,24,78,37,166,45,82,36,251,,81,69,332,27,88,28,039,30*68
$GLGSV,8,4,24,79,76,265,53*57
$GAGSV,8,5,24,12,52,225,46,1,28,140,34,31,83,179,55*6F
$GBGSV,8,6,24,135,37,259,33,130,29,058,20,145,61,238,45,129,75,348,29*6B
$GBGSV,8,7,24,136,27,172,43,113,25,195,39,104,27,124,*64
$GQGSV,8,8,24,195,72,084,34,199,42,164,39,194,49,146,47*72
$GPHCD,05,03,2022,090805.60,0.0000,0.00,0.00,0.04,39.5915700,116.3020176,30.99,0.000,0.000,30.994,2,10*41
$GPHCD,05,03,2022,090805.80,0.0000,0.00,0.00,0.06,39.5915700,116.3020178,31.01,0.000,0.000,31.008,2,10*4E
$GPHCD,05,03,2022,090806.01,0.0000,0.00,0.00,0.02,39.5915700,116.3020180,31.03,0.000,0.000,31.033,2,10*4D
$GNRMC,090806.00,A,3959.15700429,N,11630.20181327,E,0.004,0.000,050322,7.1665,W,D*09
$GPGGA,090806.00,3959.15700429,N,11630.20181327,E,2,10,0.9,40.697,M,-9.654,M,1.0,3356*60
$GPHCD,05,03,2022,090806.20,0.0000,0.00,0.00,0.02,39.5915701,116.3020181,31.04,0.000,0.000,31.043,2,10*4E
$GPHCD,05,03,2022,090806.40,0.0000,0.00,0.00,0.02,39.5915701,116.3020183,31.06,0.000,0.000,31.056,2,10*4C
$GPGSV,8,1,24,21,39,048,30,3,25,136,42,19,20,270,29,8,18,077,*73
$GPGSV,8,2,24,30,35,220,30,7,21,196,25*4E
$GLGSV,8,3,24,78,37,166,45,82,36,251,26,81,69,332,28,88,28,039,28*6A
$GLGSV,8,4,24,79,76,265,54*50
$GAGSV,8,5,24,12,52,225,46,1,28,140,35,31,83,179,55*6E
$GBGSV,8,6,24,135,37,259,33,130,29,058,21,145,61,238,46,129,75,348,29*69
$GBGSV,8,7,24,136,27,172,43,113,25,195,38,104,27,124,*65
$GQGSV,8,8,24,195,72,084,34,199,42,164,39,194,49,146,47*72
$GPHCD,05,03,2022,090806.60,0.0000,0.00,0.00,0.03,39.5915701,116.3020185,31.06,0.000,0.000,31.061,2,10*4D
$GPHCD,05,03,2022,090806.80,0.0000,0.00,0.00,0.04,39.5915701,116.3020187,31.09,0.000,0.000,31.090,2,10*47
$GPHCD,05,03,2022,090807.01,0.0000,0.00,0.00,0.02,39.5915701,116.3020188,31.12,0.000,0.000,31.115,2,10*40
$GNRMC,090807.00,A,3959.15701191,N,11630.20189638,E,0.019,2.466,050322,7.1665,W,D*06
$GPGGA,090807.00,3959.15701191,N,11630.20189638,E,2,10,1.0,40.793,M,-9.654,M,1.0,3356*68
$GPHCD,05,03,2022,090807.20,0.0000,0.00,0.00,0.06,39.5915701,116.3020190,31.14,0.000,0.000,31.145,2,10*4D
$GPHCD,05,03,2022,090807.40,0.0000,0.00,0.00,0.07,39.5915701,116.3020191,31.18,0.000,0.000,31.177,2,10*46
$GPGSV,8,1,24,21,39,048,29,3,25,136,42,19,20,270,32,8,18,077,*71
$GPGSV,8,2,24,30,35,220,29,7,21,196,22*41
$GLGSV,8,3,24,78,37,166,45,82,36,251,27,81,69,332,29,88,28,039,26*64
$GLGSV,8,4,24,79,76,265,54*50
$GAGSV,8,5,24,12,52,225,46,1,28,140,33,31,83,179,54*69
$GBGSV,8,6,24,135,37,259,34,130,29,058,20,145,61,238,45,129,75,348,28*6D
$GBGSV,8,7,24,136,27,172,43,113,25,195,38,104,27,124,*65
$GQGSV,8,8,24,195,72,084,34,199,42,164,39,194,49,146,47*72
$GPHCD,05,03,2022,090807.60,0.0000,0.00,0.00,0.01,39.5915700,116.3020193,31.21,0.000,0.000,31.207,2,10*4F
$GPHCD,05,03,2022,090807.80,0.0000,0.00,0.00,0.06,39.5915700,116.3020193,31.22,0.000,0.000,31.224,2,10*44
$GPHCD,05,03,2022,090808.01,0.0000,0.00,0.00,0.03,39.5915700,116.3020194,31.24,0.000,0.000,31.242,2,11*47
$GNRMC,090808.00,A,3959.15699613,N,11630.20193959,E,0.021,333.032,050322,7.1665,W,D*08
$GPGGA,090808.00,3959.15699613,N,11630.20193959,E,2,11,1.1,40.909,M,-9.654,M,1.0,3356*64
$GPHCD,05,03,2022,090808.20,0.0000,0.00,0.00,0.05,39.5915700,116.3020194,31.24,0.000,0.000,31.245,2,11*45
$GPHCD,05,03,2022,090808.40,0.0000,0.00,0.00,0.03,39.5915700,116.3020195,31.26,0.000,0.000,31.264,2,11*45
$GPGSV,8,1,24,21,39,048,30,3,25,136,42,19,20,270,31,8,18,077,*7A
$GPGSV,8,2,24,30,35,220,31,7,21,196,22*48
$GLGSV,8,3,24,78,37,166,45,82,36,251,28,81,69,332,29,88,28,039,20*6D
$GLGSV,8,4,24,79,76,265,54*50
$GAGSV,8,5,24,12,52,225,46,1,28,140,35,31,83,179,54*6F
$GBGSV,8,6,24,135,37,259,32,130,29,058,21,145,61,238,45,129,75,348,29*6B
$GBGSV,8,7,24,136,27,172,43,113,25,195,38,104,27,124,*65
$GQGSV,8,8,24,195,72,084,34,199,42,164,38,194,49,146,47*73
$GPHCD,05,03,2022,090808.60,0.0000,0.00,0.00,0.02,39.5915699,116.3020195,31.29,0.000,0.000,31.291,2,11*42
$GPHCD,05,03,2022,090808.80,0.0000,0.00,0.00,0.07,39.5915697,116.3020195,31.33,0.000,0.000,31.332,2,11*44
$GPHCD,05,03,2022,090809.01,0.0000,0.00,0.00,0.02,39.5915697,116.3020194,31.33,0.000,0.000,31.330,2,11*4A
$GNRMC,090809.00,A,3959.15696799,N,11630.20193227,E,0.029,257.765,050322,7.1665,W,D*09
$GPGGA,090809.00,3959.15696799,N,11630.20193227,E,2,11,1.2,40.996,M,-9.654,M,1.0,3356*6E
$GPHCD,05,03,2022,090809.20,0.0000,0.00,0.00,0.07,39.5915697,116.3020193,31.34,0.000,0.000,31.337,2,11*4B
$GPHCD,05,03,2022,090809.40,0.0000,0.00,0.00,0.07,39.5915696,116.3020192,31.35,0.000,0.000,31.350,2,11*4D
$GPGSV,8,1,24,21,39,048,29,3,25,136,42,19,20,270,31,8,18,077,*72
$GPGSV,8,2,24,30,35,220,29,7,21,196,25*46
$GLGSV,8,3,24,78,37,166,44,82,36,251,28,81,69,332,27,88,28,039,22*60
$GLGSV,8,4,24,79,76,265,54*50
$GAGSV,8,5,24,12,52,225,46,1,28,140,30,31,83,179,54*6A
$GBGSV,8,6,24,135,37,259,32,130,29,058,22,145,61,238,44,129,75,348,28*68
$GBGSV,8,7,24,136,27,172,42,113,25,195,38,104,27,124,*64
$GQGSV,8,8,24,195,72,084,33,199,42,164,38,194,49,146,47*74
$GPHCD,05,03,2022,090809.60,0.0000,0.00,0.00,0.02,39.5915696,116.3020191,31.36,0.000,0.000,31.360,2,11*49
$GPHCD,05,03,2022,090809.80,0.0000,0.00,0.00,0.05,39.5915695,116.3020189,31.36,0.000,0.000,31.364,2,11*4E
$GPHCD,05,03,2022,090810.01,0.0000,0.00,0.00,0.07,39.5915694,116.3020188,31.39,0.000,0.000,31.385,2,11*4D
$GNRMC,090810.00,A,3959.15693176,N,11630.20187033,E,0.013,238.394,050322,7.1665,W,D*0B
$GPGGA,090810.00,3959.15693176,N,11630.20187033,E,2,11,0.9,41.049,M,-9.654,M,1.0,3356*66
$GPHCD,05,03,2022,090810.20,0.0000,0.00,0.00,0.03,39.5915693,116.3020187,31.39,0.000,0.000,31.392,2,11*44
$GPHCD,05,03,2022,090810.40,0.0000,0.00,0.00,0.01,39.5915692,116.3020186,31.42,0.000,0.000,31.421,2,11*43
$GPGSV,8,1,24,21,39,048,29,3,25,136,43,19,20,270,32,8,18,077,*70
$GPGSV,8,2,24,30,35,220,30,7,21,196,29*42
$GLGSV,8,3,24,78,37,166,43,82,36,251,29,81,69,332,27,88,28,039,22*66
$GLGSV,8,4,24,79,76,265,53*57
$GAGSV,8,5,24,12,52,225,46,1,28,140,18,31,83,179,54*60
$GBGSV,8,6,24,135,37,259,34,130,29,058,20,145,61,238,44,129,75,348,29*6D
$GBGSV,8,7,24,136,27,172,41,113,25,195,38,104,27,124,*67
$GQGSV,8,8,24,195,72,084,33,199,42,164,38,194,49,146,47*74
$GPHCD,05,03,2022,090810.60,0.0000,0.00,0.00,0.03,39.5915693,116.3020184,31.35,0.000,0.000,31.354,2,11*45
$GPHCD,05,03,2022,090810.80,0.0000,0.00,0.00,0.02,39.5915694,116.3020182,31.30,0.000,0.000,31.303,2,11*4C
$GPHCD,05,03,2022,090811.01,0.0000,0.00,0.00,0.05,39.5915695,116.3020180,31.26,0.000,0.000,31.262,2,11*41
$GNRMC,090811.00,A,3959.15696006,N,11630.20178814,E,0.010,23.000,050322,7.1665,W,D*31
$GPGGA,090811.00,3959.15696006,N,11630.20178814,E,2,12,1.1,40.863,M,-9.654,M,1.0,3356*62
$GPHCD,05,03,2022,090811.20,0.0000,0.00,0.00,0.05,39.5915696,116.3020179,31.21,0.000,0.000,31.205,2,11*41
$GPHCD,05,03,2022,090811.40,0.0000,0.00,0.00,0.04,39.5915697,116.3020177,31.17,0.000,0.000,31.171,2,12*4F
$GPGSV,8,1,24,21,39,048,29,3,25,136,44,19,20,270,31,8,18,077,*74
$GPGSV,8,2,24,30,35,220,29,7,21,196,26*45
$GLGSV,8,3,24,78,37,166,43,82,36,251,28,81,69,332,26,88,28,039,22*66
$GLGSV,8,4,24,79,76,265,53*57
$GAGSV,8,5,24,12,52,225,45,1,28,140,,31,83,179,55*6B
$GBGSV,8,6,24,135,37,259,33,130,29,058,23,145,61,238,45,129,75,348,30*60
$GBGSV,8,7,24,136,27,172,42,113,25,195,39,104,27,124,29*6E
$GQGSV,8,8,24,195,72,084,33,199,42,164,39,194,49,146,47*75
$GPHCD,05,03,2022,090811.60,0.0000,0.00,0.00,0.01,39.5915697,116.3020176,31.13,0.000,0.000,31.134,2,12*4C
$GPHCD,05,03,2022,090811.80,0.0000,0.00,0.00,0.02,39.5915697,116.3020174,31.09,0.000,0.000,31.094,2,12*43
$GPHCD,05,03,2022,090812.01,0.0000,0.00,0.00,0.02,39.5915698,116.3020172,31.05,0.000,0.000,31.050,2,12*44
$GNRMC,090812.00,A,3959.15698692,N,11630.20171232,E,0.006,0.000,050322,7.1665,W,D*06
$GPGGA,090812.00,3959.15698692,N,11630.20171232,E,2,12,1.1,40.666,M,-9.654,M,1.0,3356*68
$GPHCD,05,03,2022,090812.20,0.0000,0.00,0.00,0.02,39.5915699,116.3020171,31.01,0.000,0.000,31.008,2,12*4C
$GPHCD,05,03,2022,090812.40,0.0000,0.00,0.00,0.04,39.5915699,116.3020170,30.97,0.000,0.000,30.972,2,12*46
$GPGSV,8,1,24,21,39,048,29,3,25,136,43,19,20,270,32,8,18,077,*70
$GPGSV,8,2,24,30,35,220,29,7,21,196,26*45
$GLGSV,8,3,24,78,37,166,43,82,36,251,27,81,69,332,26,88,28,039,21*6A
$GLGSV,8,4,24,79,76,265,53*57
$GAGSV,8,5,24,12,52,225,46,1,28,140,,31,83,179,55*68
$GBGSV,8,6,24,135,37,259,32,130,29,058,24,145,61,238,44,129,75,348,29*6F
$GBGSV,8,7,24,136,27,172,42,113,25,195,38,104,27,124,29*6F
$GQGSV,8,8,24,195,72,084,34,199,42,164,40,194,49,146,46*7D
$GPHCD,05,03,2022,090812.60,0.0000,0.00,0.00,0.01,39.5915700,116.3020169,30.93,0.000,0.000,30.930,2,12*4A
$GPHCD,05,03,2022,090812.80,0.0000,0.00,0.00,0.01,39.5915700,116.3020167,30.89,0.000,0.000,30.890,2,12*4A
$GPHCD,05,03,2022,090813.01,0.0000,0.00,0.00,0.04,39.5915700,116.3020166,30.86,0.000,0.000,30.861,2,12*47
$GNRMC,090813.00,A,3959.15700320,N,11630.20164689,E,0.017,297.059,050322,7.1665,W,D*0B
$GPGGA,090813.00,3959.15700320,N,11630.20164689,E,2,12,1.1,40.476,M,-9.654,M,1.0,3356*66
$GPHCD,05,03,2022,090813.20,0.0000,0.00,0.00,0.04,39.5915700,116.3020165,30.82,0.000,0.000,30.821,2,12*47
$GPHCD,05,03,2022,090813.40,0.0000,0.00,0.00,0.08,39.5915701,116.3020164,30.78,0.000,0.000,30.780,2,12*4C
$GPGSV,8,1,24,21,39,048,28,3,25,136,42,19,20,270,34,8,18,077,*76
$GPGSV,8,2,24,30,35,220,26,7,21,196,24*48
$GLGSV,8,3,24,78,37,166,44,82,36,251,31,81,69,332,26,88,28,039,23*68
$GLGSV,8,4,24,79,76,265,53*57
$GAGSV,8,5,24,12,52,225,46,1,28,140,,31,83,179,54*69
$GBGSV,8,6,24,135,37,259,34,130,29,058,22,145,61,238,44,129,75,348,30*67
$GBGSV,8,7,24,136,27,172,42,113,25,195,38,104,27,124,29*6F
$GQGSV,8,8,24,195,72,084,34,199,42,164,39,194,49,146,46*73
$GPHCD,05,03,2022,090813.60,0.0000,0.00,0.00,0.10,39.5915702,116.3020162,30.72,0.000,0.000,30.721,2,12*43
$GPHCD,05,03,2022,090813.80,0.0000,0.00,0.00,0.11,39.5915702,116.3020161,30.68,0.000,0.000,30.681,2,12*4F
$GPHCD,05,03,2022,090814.01,0.0000,0.00,0.00,0.06,39.5915703,116.3020159,30.64,0.000,0.000,30.638,2,12*43
$GNRMC,090814.00,A,3959.15702842,N,11630.20158443,E,0.013,2.805,050322,7.1665,W,D*01
$GPGGA,090814.00,3959.15702842,N,11630.20158443,E,2,12,1.1,40.257,M,-9.654,M,1.0,3356*62
$GPHCD,05,03,2022,090814.20,0.0000,0.00,0.00,0.04,39.5915703,116.3020158,30.60,0.000,0.000,30.605,2,12*49
$GPHCD,05,03,2022,090814.40,0.0000,0.00,0.00,0.04,39.5915703,116.3020157,30.57,0.000,0.000,30.567,2,12*43
$GPGSV,8,1,24,21,39,048,28,3,25,136,42,19,20,270,33,8,18,077,*71
$GPGSV,8,2,24,30,35,220,29,7,21,196,25*46
$GLGSV,8,3,24,78,37,166,44,82,36,251,29,81,69,332,24,88,28,039,22*62
$GLGSV,8,4,24,79,76,265,53*57
$GAGSV,8,5,24,12,52,225,46,1,28,140,,31,83,179,54*69
$GBGSV,8,6,24,135,37,259,34,130,29,058,22,145,61,238,44,129,75,348,29*6F
$GBGSV,8,7,24,136,27,172,43,113,25,195,38,104,27,124,29*6E
$GQGSV,8,8,24,195,72,084,33,199,42,164,40,194,49,146,46*7A
$GPHCD,05,03,2022,090814.60,0.0000,0.00,0.00,0.05,39.5915704,116.3020157,30.53,0.000,0.000,30.534,2,12*45
$GPHCD,05,03,2022,090814.80,0.0000,0.00,0.00,0.07,39.5915703,116.3020156,30.52,0.000,0.000,30.517,2,12*4F
$GPHCD,05,03,2022,090815.01,0.0000,0.00,0.00,0.03,39.5915702,116.3020154,30.51,0.000,0.000,30.513,2,12*47
$GNRMC,090815.00,A,3959.15699578,N,11630.20152983,E,0.026,296.679,050322,7.1665,W,D*00
$GPGGA,090815.00,3959.15699578,N,11630.20152983,E,2,12,1.1,40.160,M,-9.654,M,1.0,3356*68
$GPHCD,05,03,2022,090815.20,0.0000,0.00,0.00,0.05,39.5915699,116.3020153,30.51,0.000,0.000,30.509,2,12*4D
$GPHCD,05,03,2022,090815.40,0.0000,0.00,0.00,0.06,39.5915697,116.3020151,30.51,0.000,0.000,30.507,2,12*4A
$GPGSV,8,1,24,21,39,048,29,3,25,136,42,19,20,270,31,8,18,077,*72
$GPGSV,8,2,24,30,35,220,29,7,21,196,28*4B
$GLGSV,8,3,24,78,37,166,44,82,36,251,29,81,69,332,24,88,28,039,21*61
$GLGSV,8,4,24,79,76,264,52*57
$GAGSV,8,5,24,12,52,225,47,1,28,140,,31,83,179,54*68
$GBGSV,8,6,24,135,37,259,33,130,29,058,25,145,61,238,44,129,75,348,29*6F
$GBGSV,8,7,24,136,27,172,43,113,25,195,39,104,27,124,29*6F
$GQGSV,8,8,24,195,72,084,33,199,42,164,39,194,49,146,46*74
$GPHCD,05,03,2022,090815.60,0.0000,0.00,0.00,0.01,39.5915696,116.3020151,30.49,0.000,0.000,30.495,2,12*4D
$GPHCD,05,03,2022,090815.80,0.0000,0.00,0.00,0.03,39.5915695,116.3020150,30.47,0.000,0.000,30.472,2,12*44
$GPHCD,05,03,2022,090816.01,0.0000,0.00,0.00,0.02,39.5915694,116.3020149,30.44,0.000,0.000,30.438,2,12*4B
$GNRMC,090816.00,A,3959.15694058,N,11630.20148368,E,0.005,0.000,050322,7.1665,W,D*09
$GPGGA,090816.00,3959.15694058,N,11630.20148368,E,2,12,1.1,40.057,M,-9.654,M,1.0,3356*60
$GPHCD,05,03,2022,090816.20,0.0000,0.00,0.00,0.01,39.5915694,116.3020148,30.40,0.000,0.000,30.403,2,12*46
$GPHCD,05,03,2022,090816.40,0.0000,0.00,0.00,0.04,39.5915694,116.3020148,30.36,0.000,0.000,30.360,2,12*46
$GPGSV,8,1,24,21,39,048,28,3,25,136,43,19,20,270,32,8,18,077,*71
$GPGSV,8,2,24,30,35,220,29,7,21,196,29*4A
$GLGSV,8,3,24,78,37,166,45,82,36,251,31,81,69,332,24,88,28,039,18*63
$GLGSV,8,4,24,79,76,264,52*57
$GAGSV,8,5,24,12,52,225,46,1,28,140,,31,83,179,54*69
$GBGSV,8,6,24,135,37,259,33,130,29,058,24,145,61,238,44,129,75,348,30*66
$GBGSV,8,7,24,136,27,172,42,113,25,195,39,104,27,124,29*6E
$GQGSV,8,8,24,195,72,084,34,199,42,164,39,194,49,146,46*73
$GPHCD,05,03,2022,090816.60,0.0000,0.00,0.00,0.07,39.5915694,116.3020147,30.32,0.000,0.000,30.318,2,12*43
$GPHCD,05,03,2022,090816.80,0.0000,0.00,0.00,0.05,39.5915694,116.3020147,30.28,0.000,0.000,30.282,2,12*46
$GPHCD,05,03,2022,090817.01,0.0000,0.00,0.00,0.03,39.5915694,116.3020147,30.25,0.000,0.000,30.252,2,12*48
$GNRMC,090817.00,A,3959.15693396,N,11630.20146369,E,0.014,340.935,050322,7.1665,W,D*09
$GPGGA,090817.00,3959.15693396,N,11630.20146369,E,2,12,1.1,39.880,M,-9.654,M,1.0,3356*64
$GPHCD,05,03,2022,090817.20,0.0000,0.00,0.00,0.05,39.5915694,116.3020146,30.22,0.000,0.000,30.223,2,12*4D
$GPHCD,05,03,2022,090817.40,0.0000,0.00,0.00,0.05,39.5915693,116.3020146,30.20,0.000,0.000,30.197,2,11*41
$GPGSV,8,1,24,21,39,048,29,3,25,136,42,19,20,270,31,8,18,077,*72
$GPGSV,8,2,24,30,35,220,30,7,21,196,28*43
$GLGSV,8,3,24,78,36,166,45,82,36,251,29,81,69,332,26,88,28,039,22*60
$GLGSV,8,4,24,79,76,264,52*57
$GAGSV,8,5,24,12,52,225,46,1,28,140,,31,83,179,54*69
$GBGSV,8,6,24,135,37,259,34,130,29,058,25,145,61,238,44,129,75,348,31*61
$GBGSV,8,7,24,136,27,172,42,113,25,195,39,104,27,124,*65
$GQGSV,8,8,24,195,72,084,34,199,42,164,39,194,49,146,46*73
$GPHCD,05,03,2022,090817.60,0.0000,0.00,0.00,0.03,39.5915693,116.3020146,30.18,0.000,0.000,30.177,2,11*40
$GPHCD,05,03,2022,090817.80,0.0000,0.00,0.00,0.06,39.5915692,116.3020146,30.15,0.000,0.000,30.154,2,11*46
$GPHCD,05,03,2022,090818.01,0.0000,0.00,0.00,0.02,39.5915691,116.3020145,30.14,0.000,0.000,30.136,2,11*41
$GNRMC,090818.00,A,3959.15689849,N,11630.20144593,E,0.007,0.000,050322,7.1665,W,D*0F
$GPGGA,090818.00,3959.15689849,N,11630.20144593,E,2,12,0.9,39.769,M,-9.654,M,1.0,3356*69
$GPHCD,05,03,2022,090818.20,0.0000,0.00,0.00,0.02,39.5915690,116.3020145,30.11,0.000,0.000,30.112,2,11*40
$GPHCD,05,03,2022,090818.40,0.0000,0.00,0.00,0.04,39.5915690,116.3020144,30.07,0.000,0.000,30.074,2,12*44
$GPGSV,8,1,24,21,39,048,29,3,25,136,41,19,20,270,32,8,18,077,*72
$GPGSV,8,2,24,30,35,220,29,7,21,196,28*4B
$GLGSV,8,3,24,78,36,166,46,82,36,251,30,81,69,332,23,88,28,039,23*6F
$GLGSV,8,4,24,79,76,264,52*57
$GAGSV,8,5,24,12,52,225,47,1,28,140,,31,83,179,54*68
$GBGSV,8,6,24,135,37,259,34,130,29,058,25,145,61,238,44,129,75,348,31*61
$GBGSV,8,7,24,136,27,172,42,113,25,195,39,104,27,124,29*6E
$GQGSV,8,8,24,195,72,084,34,199,42,164,39,194,49,146,46*73
$GPHCD,05,03,2022,090818.60,0.0000,0.00,0.00,0.07,39.5915689,116.3020143,30.04,0.000,0.000,30.042,2,12*4C
$GPHCD,05,03,2022,090818.80,0.0000,0.00,0.00,0.02,39.5915689,116.3020142,30.00,0.000,0.000,30.000,2,12*44
$GPHCD,05,03,2022,090819.01,0.0000,0.00,0.00,0.06,39.5915689,116.3020141,29.94,0.000,0.000,29.942,2,12*49
$GNRMC,090819.00,A,3959.15688825,N,11630.20139783,E,0.007,0.000,050322,7.1665,W,D*0C
$GPGGA,090819.00,3959.15688825,N,11630.20139783,E,2,12,1.1,39.541,M,-9.654,M,1.0,3356*6B
$GPHCD,05,03,2022,090819.20,0.0000,0.00,0.00,0.04,39.5915689,116.3020140,29.89,0.000,0.000,29.887,2,12*4D
$GPHCD,05,03,2022,090819.40,0.0000,0.00,0.00,0.04,39.5915688,116.3020139,29.85,0.000,0.000,29.846,2,12*45
$GPGSV,8,1,24,21,39,048,27,3,25,136,41,19,20,270,33,8,18,077,*7D
$GPGSV,8,2,24,30,35,220,26,7,21,196,27*4B
$GLGSV,8,3,24,78,36,166,46,82,36,251,31,81,69,332,23,88,28,039,22*6F
$GLGSV,8,4,24,79,76,264,52*57
$GAGSV,8,5,24,12,52,225,47,1,28,140,,31,83,179,54*68
$GBGSV,8,6,24,135,37,259,34,130,29,058,28,145,61,238,44,129,75,348,31*6C
$GBGSV,8,7,24,136,27,172,42,113,25,195,39,104,27,124,30*66
$GQGSV,8,8,24,195,72,084,34,199,42,164,39,194,49,146,46*73
$GPHCD,05,03,2022,090819.60,0.0000,0.00,0.00,0.06,39.5915688,116.3020138,29.83,0.000,0.000,29.829,2,12*4B
$GPHCD,05,03,2022,090819.80,0.0000,0.00,0.00,0.11,39.5915688,116.3020137,29.81,0.000,0.000,29.810,2,12*44
$GPHCD,05,03,2022,090859.01,0.0000,0.00,0.00,0.02,39.5915737,116.3020149,27.91,0.000,0.000,27.908,2,13*4F
$GNRMC,090859.00,A,3959.15737119,N,11630.20148993,E,0.006,0.000,050322,7.1665,W,D*03
$GPGGA,090859.00,3959.15737119,N,11630.20148993,E,2,12,0.9,37.561,M,-9.654,M,1.0,3356*60
$GPHCD,05,03,2022,090859.20,0.0000,0.00,0.00,0.01,39.5915737,116.3020149,27.91,0.000,0.000,27.907,2,12*41
$GPHCD,05,03,2022,090859.40,0.0000,0.00,0.00,0.04,39.5915737,116.3020149,27.91,0.000,0.000,27.906,2,12*43
$GPGSV,8,1,26,21,38,048,25,3,25,135,42,19,20,271,27,14,67,312,28*47
$GPGSV,8,2,26,8,18,077,28,30,35,220,31,1,70,060,23,7,21,196, 2*52
$GLGSV,8,3,26,78,36,166,47,82,36,251,32,81,69,333,24,88,28,040,32*66
$GLGSV,8,4,26,79,76,263,54*54
$GAGSV,8,5,26,12,52,225,46,1,27,140,34,31,83,179,55*62
$GBGSV,8,6,26,135,37,260,38,130,29,058,26,145,61,237,45,129,75,349,29*60
$GBGSV,8,7,26,136,27,172,42,113,25,195,39,104,27,124,*67
$GQGSV,8,8,26,195,72,084,29,199,42,164,40,194,49,146,47*72
$GPHCD,05,03,2022,090859.60,0.0000,0.00,0.00,0.08,39.5915737,116.3020149,27.90,0.000,0.000,27.905,2,12*4F
$GPHCD,05,03,2022,090859.80,0.0000,0.00,0.00,0.08,39.5915737,116.3020150,27.90,0.000,0.000,27.904,2,12*48
$GPHCD,05,03,2022,090900.01,0.0000,0.00,0.00,0.13,39.5915738,116.3020150,27.90,0.000,0.000,27.903,2,12*4E
$GNRMC,090900.00,A,3959.15737641,N,11630.20149756,E,0.030,8.830,050322,7.1665,W,D*04
$GPGGA,090900.00,3959.15737641,N,11630.20149756,E,2,12,0.9,37.557,M,-9.654,M,1.0,3356*64
$GPHCD,05,03,2022,090900.20,0.0000,0.00,0.00,0.07,39.5915738,116.3020150,27.90,0.000,0.000,27.902,2,12*49
$GPHCD,05,03,2022,090900.40,0.0000,0.00,0.00,0.04,39.5915738,116.3020150,27.90,0.000,0.000,27.902,2,13*4D
$GPGSV,8,1,26,21,38,048,26,3,25,135,42,19,20,271,24,14,67,312,29*46
$GPGSV,8,2,26,8,18,077,26,30,35,220,31,1,70,060,24,7,21,196,14*4C
$GLGSV,8,3,26,78,36,166,48,82,36,251,32,81,69,333,25,88,28,040,32*68
$GLGSV,8,4,26,79,76,263,55*55
$GAGSV,8,5,26,12,52,225,46,1,27,140,35,31,83,179,55*63
$GBGSV,8,6,26,135,37,260,38,130,29,058,26,145,61,237,45,129,75,349,29*60
$GBGSV,8,7,26,136,27,172,41,113,25,195,39,104,27,124,*64
$GQGSV,8,8,26,195,72,084,29,199,42,164,40,194,49,146,47*72
$GPHCD,05,03,2022,090900.60,0.0000,0.00,0.00,0.02,39.5915738,116.3020150,27.90,0.000,0.000,27.901,2,13*4A
$GPHCD,05,03,2022,090900.80,0.0000,0.00,0.00,0.02,39.5915738,116.3020150,27.90,0.000,0.000,27.900,2,13*45
$GPHCD,05,03,2022,090901.01,0.0000,0.00,0.00,0.03,39.5915738,116.3020150,27.90,0.000,0.000,27.899,2,13*4D
$GNRMC,090901.00,A,3959.15738093,N,11630.20150329,E,0.009,0.000,050322,7.1665,W,D*0E
$GPGGA,090901.00,3959.15738093,N,11630.20150329,E,2,13,0.9,37.553,M,-9.654,M,1.0,3356*62
$GPHCD,05,03,2022,090901.20,0.0000,0.00,0.00,0.02,39.5915738,116.3020150,27.90,0.000,0.000,27.899,2,13*4F
$GPHCD,05,03,2022,090901.40,0.0000,0.00,0.00,0.02,39.5915738,116.3020150,27.90,0.000,0.000,27.898,2,13*48
$GPGSV,9,1,27,21,38,048,24,3,25,135,41,19,20,271,28,14,67,312,28*4A
$GPGSV,9,2,27,8,18,077,23,30,35,220,30,1,70,060,24,7,21,196,12*4E
$GPGSV,9,3,27,17,42,284,32*49
$GLGSV,9,4,27,78,36,166,47,82,36,251,32,81,69,333,23,88,28,040,32*66
$GLGSV,9,5,27,79,76,263,54*55
$GAGSV,9,6,27,12,52,225,46,1,27,140,35,31,83,179,55*60
$GBGSV,9,7,27,135,37,260,38,130,29,058,27,145,61,237,45,129,75,349,28*61
$GBGSV,9,8,27,136,27,172,41,113,25,195,38,104,27,124,*6A
$GQGSV,9,9,27,195,72,084,29,199,42,164,40,194,49,146,46*72
$GPHCD,05,03,2022,090901.60,0.0000,0.00,0.00,0.02,39.5915738,116.3020151,27.90,0.000,0.000,27.898,2,13*4B
$GPHCD,05,03,2022,090901.80,0.0000,0.00,0.00,0.03,39.5915738,116.3020151,27.90,0.000,0.000,27.897,2,13*4B
$GPHCD,05,03,2022,090902.01,0.0000,0.00,0.00,0.03,39.5915738,116.3020151,27.90,0.000,0.000,27.897,2,13*41
$GNRMC,090902.00,A,3959.15738470,N,11630.20150752,E,0.010,279.495,050322,7.1665,W,D*00
$GPGGA,090902.00,3959.15738470,N,11630.20150752,E,2,13,0.9,37.550,M,-9.654,M,1.0,3356*63
$GPHCD,05,03,2022,090902.20,0.0000,0.00,0.00,0.04,39.5915739,116.3020151,27.90,0.000,0.000,27.896,2,13*45
$GPHCD,05,03,2022,090902.40,0.0000,0.00,0.00,0.02,39.5915739,116.3020151,27.90,0.000,0.000,27.896,2,14*42
$GPGSV,9,1,27,21,38,048,26,3,25,135,40,19,20,271,27,14,67,312,27*49
$GPGSV,9,2,27,8,18,077,21,30,35,220,30,1,70,060,23,7,21,196,12*4B
$GPGSV,9,3,27,17,42,284,31*4A
$GLGSV,9,4,27,78,36,166,47,82,36,251,31,81,69,333,26,88,28,040,32*60
$GLGSV,9,5,27,79,76,263,55*54
$GAGSV,9,6,27,12,52,225,46,1,27,140,35,31,83,179,55*60
$GBGSV,9,7,27,135,37,260,38,130,29,058,27,145,61,237,46,129,75,349,29*63
$GBGSV,9,8,27,136,27,172,42,113,25,195,39,104,27,124,*68
$GQGSV,9,9,27,195,72,084,31,199,42,164,40,194,49,146,46*7B
$GPHCD,05,03,2022,090902.60,0.0000,0.00,0.00,0.03,39.5915739,116.3020151,27.89,0.000,0.000,27.895,2,13*4D
$GPHCD,05,03,2022,090902.80,0.0000,0.00,0.00,0.03,39.5915739,116.3020151,27.89,0.000,0.000,27.895,2,13*43
$GPHCD,05,03,2022,090903.01,0.0000,0.00,0.00,0.01,39.5915739,116.3020151,27.89,0.000,0.000,27.895,2,13*49
$GNRMC,090903.00,A,3959.15738746,N,11630.20151071,E,0.016,28.750,050322,7.1665,W,D*3A
$GPGGA,090903.00,3959.15738746,N,11630.20151071,E,2,13,0.9,37.548,M,-9.654,M,1.0,3356*6A
$GPHCD,05,03,2022,090903.20,0.0000,0.00,0.00,0.03,39.5915739,116.3020151,27.89,0.000,0.000,27.894,2,13*49
$GPHCD,05,03,2022,090903.40,0.0000,0.00,0.00,0.02,39.5915739,116.3020151,27.89,0.000,0.000,27.894,2,13*4E
$GPGSV,9,1,27,21,38,048,29,3,25,135,41,19,20,271,29,14,67,312,30*4F
$GPGSV,9,2,27,8,18,077,21,30,35,220,29,1,70,060,26,7,21,196,16*42
$GPGSV,9,3,27,17,42,284,29*43
$GLGSV,9,4,27,78,36,166,47,82,36,251,33,81,69,333,25,88,28,040,33*60
$GLGSV,9,5,27,79,76,262,54*54
$GAGSV,9,6,27,12,52,225,47,1,27,140,35,31,83,179,55*61
$GBGSV,9,7,27,135,37,260,38,130,29,058,28,145,61,237,45,129,75,349,26*60
$GBGSV,9,8,27,136,27,172,41,113,25,195,38,104,27,124,*6A
$GQGSV,9,9,27,195,72,084,32,199,42,164,40,194,49,146,47*79
$GPHCD,05,03,2022,090903.60,0.0000,0.00,0.00,0.01,39.5915739,116.3020151,27.89,0.000,0.000,27.894,2,14*48
$GPHCD,05,03,2022,090903.80,0.0000,0.00,0.00,0.03,39.5915739,116.3020151,27.89,0.000,0.000,27.894,2,14*44
$GPHCD,05,03,2022,090904.01,0.0000,0.00,0.00,0.04,39.5915739,116.3020151,27.89,0.000,0.000,27.894,2,14*4D
$GNRMC,090904.00,A,3959.15738932,N,11630.20151349,E,0.014,357.296,050322,7.1665,W,D*0E
$GPGGA,090904.00,3959.15738932,N,11630.20151349,E,2,14,0.9,37.548,M,-9.654,M,1.0,3356*6F
$GPHCD,05,03,2022,090904.20,0.0000,0.00,0.00,0.03,39.5915739,116.3020151,27.89,0.000,0.000,27.894,2,14*49
$GPHCD,05,03,2022,090904.40,0.0000,0.00,0.00,0.03,39.5915739,116.3020151,27.89,0.000,0.000,27.894,2,14*4F
$GPGSV,9,1,27,21,38,048,26,3,25,135,42,19,20,271,29,14,67,312,30*43
$GPGSV,9,2,27,8,18,077,22,30,35,220,30,1,70,060,22,7,21,196,27*4F
$GPGSV,9,3,27,17,42,284,27*4D
$GLGSV,9,4,27,78,36,166,47,82,36,251,33,81,69,333,26,88,28,040,34*64
$GLGSV,9,5,27,79,76,262,55*55
$GAGSV,9,6,27,12,52,225,47,1,27,140,31,31,83,179,55*65
$GBGSV,9,7,27,135,37,260,38,130,29,058,27,145,61,237,45,129,75,349,29*60
$GBGSV,9,8,27,136,27,172,40,113,25,195,40,104,27,124,*64
$GQGSV,9,9,27,195,72,084,29,199,42,164,39,194,49,146,47*7D
$GPHCD,05,03,2022,090904.60,0.0000,0.00,0.00,0.00,39.5915739,116.3020151,27.89,0.000,0.000,27.894,2,14*4E
$GPHCD,05,03,2022,090904.80,0.0000,0.00,0.00,0.04,39.5915739,116.3020152,27.89,0.000,0.000,27.894,2,14*47
$GPHCD,05,03,2022,090905.01,0.0000,0.00,0.00,0.04,39.5915739,116.3020152,27.89,0.000,0.000,27.895,2,14*4E
$GNRMC,090905.00,A,3959.15739050,N,11630.20151622,E,0.011,344.126,050322,7.1665,W,D*04
$GPGGA,090905.00,3959.15739050,N,11630.20151622,E,2,14,0.8,37.549,M,-9.654,M,1.0,3356*6A
$GPHCD,05,03,2022,090905.20,0.0000,0.00,0.00,0.03,39.5915739,116.3020152,27.89,0.000,0.000,27.895,2,14*4A
$GPHCD,05,03,2022,090905.40,0.0000,0.00,0.00,0.03,39.5915739,116.3020152,27.89,0.000,0.000,27.895,2,14*4C
$GPGSV,9,1,27,21,38,048,26,3,25,135,42,19,20,271,28,14,67,312,30*42
$GPGSV,9,2,27,8,18,077,26,30,35,220,26,1,70,060,20,7,21,196,24*4D
$GPGSV,9,3,27,17,42,284,29*43
$GLGSV,9,4,27,78,36,166,46,82,36,251,32,81,69,333,26,88,28,040,33*63
$GLGSV,9,5,27,79,76,262,54*54
$GAGSV,9,6,27,12,52,225,47,1,27,140,38,31,83,179,56*6F
$GBGSV,9,7,27,135,37,260,37,130,29,058,22,145,61,237,44,129,75,349,28*6A
$GBGSV,9,8,27,136,27,172,41,113,25,195,40,104,27,124,*65
$GQGSV,9,9,27,195,72,084,29,199,42,164,39,194,49,146,45*7F
$GPHCD,05,03,2022,090905.60,0.0000,0.00,0.00,0.02,39.5915739,116.3020152,27.89,0.000,0.000,27.895,2,14*4F
$GPHCD,05,03,2022,090905.80,0.0000,0.00,0.00,0.01,39.5915739,116.3020152,27.90,0.000,0.000,27.896,2,14*49
$GPHCD,05,03,2022,090906.01,0.0000,0.00,0.00,0.02,39.5915739,116.3020152,27.90,0.000,0.000,27.896,2,14*40
$GNRMC,090906.00,A,3959.15739115,N,11630.20151914,E,0.006,0.000,050322,7.1665,W,D*0D
$GPGGA,090906.00,3959.15739115,N,11630.20151914,E,2,14,0.9,37.550,M,-9.654,M,1.0,3356*6A
$GPHCD,05,03,2022,090906.20,0.0000,0.00,0.00,0.02,39.5915739,116.3020152,27.90,0.000,0.000,27.897,2,14*42
$GPHCD,05,03,2022,090906.40,0.0000,0.00,0.00,0.03,39.5915739,116.3020152,27.90,0.000,0.000,27.897,2,15*44
$GPGSV,9,1,27,21,38,048,28,3,25,135,42,19,20,271,27,14,67,312,30*43
$GPGSV,9,2,27,8,18,077,25,30,35,220,29,1,70,060,21,7,21,196,22*46
$GPGSV,9,3,27,17,42,284,26*4C
$GLGSV,9,4,27,78,36,166,48,82,36,251,33,81,69,333,25,88,28,040,33*6F
$GLGSV,9,5,27,79,76,262,54*54
$GAGSV,9,6,27,12,52,225,47,1,27,140,33,31,83,179,56*64
$GBGSV,9,7,27,135,37,260,37,130,29,058,25,145,61,237,45,129,75,349,27*63
$GBGSV,9,8,27,136,27,172,39,113,25,195,39,104,27,124,*64
$GQGSV,9,9,27,195,72,084,29,199,42,164,40,194,49,146,46*72
$GPHCD,05,03,2022,090906.60,0.0000,0.00,0.00,0.02,39.5915739,116.3020152,27.90,0.000,0.000,27.898,2,15*48
$GPHCD,05,03,2022,090906.80,0.0000,0.00,0.00,0.03,39.5915739,116.3020152,27.90,0.000,0.000,27.898,2,15*47
$GPHCD,05,03,2022,090907.01,0.0000,0.00,0.00,0.01,39.5915739,116.3020152,27.90,0.000,0.000,27.899,2,15*4C
$GNRMC,090907.00,A,3959.15739142,N,11630.20152235,E,0.027,3.687,050322,7.1665,W,D*0C
$GPGGA,090907.00,3959.15739142,N,11630.20152235,E,2,15,0.9,37.553,M,-9.654,M,1.0,3356*60
$GPHCD,05,03,2022,090907.20,0.0000,0.00,0.00,0.04,39.5915739,116.3020152,27.90,0.000,0.000,27.900,2,15*4B
$GPHCD,05,03,2022,090907.40,0.0000,0.00,0.00,0.02,39.5915739,116.3020152,27.90,0.000,0.000,27.900,2,15*4B
$GPGSV,9,1,27,21,38,048,28,3,25,135,41,19,20,271,27,14,67,312,28*49
$GPGSV,9,2,27,8,18,077,24,30,35,220,29,1,70,060,21,7,21,196,19*4F
$GPGSV,9,3,27,17,42,284,20*4A
$GLGSV,9,4,27,78,36,166,47,82,36,251,33,81,69,333,26,88,28,040,35*65
$GLGSV,9,5,27,79,76,262,55*55
$GAGSV,9,6,27,12,52,225,46,1,27,140,27,31,83,178,56*61
$GBGSV,9,7,27,135,37,260,38,130,29,058,27,145,61,237,46,129,75,349,26*6C
$GBGSV,9,8,27,136,27,172,39,113,25,195,39,104,27,124,*64
$GQGSV,9,9,27,195,72,084,29,199,42,164,39,194,49,146,47*7D
$GPHCD,05,03,2022,090907.60,0.0000,0.00,0.00,0.01,39.5915739,116.3020152,27.90,0.000,0.000,27.901,2,15*4B
$GPHCD,05,03,2022,090907.80,0.0000,0.00,0.00,0.03,39.5915739,116.3020152,27.90,0.000,0.000,27.902,2,15*44
$GPHCD,05,03,2022,090908.01,0.0000,0.00,0.00,0.02,39.5915739,116.3020153,27.90,0.000,0.000,27.902,2,14*43
$GNRMC,090908.00,A,3959.15739136,N,11630.20152592,E,0.013,5.388,050322,7.1665,W,D*01
$GPGGA,090908.00,3959.15739136,N,11630.20152592,E,2,15,0.9,37.557,M,-9.654,M,1.0,3356*62
$GPHCD,05,03,2022,090908.20,0.0000,0.00,0.00,0.04,39.5915739,116.3020153,27.90,0.000,0.000,27.903,2,15*46
$GPHCD,05,03,2022,090908.40,0.0000,0.00,0.00,0.08,39.5915739,116.3020153,27.90,0.000,0.000,27.904,2,15*4B
$GPGSV,9,1,27,21,38,048,29,3,25,135,40,19,20,271,27,14,67,312,26*47
$GPGSV,9,2,27,8,18,077,22,30,35,220,30,1,70,060,22,7,21,196,12*49
$GPGSV,9,3,27,17,42,284,24*4E
$GLGSV,9,4,27,78,36,166,47,82,36,251,32,81,69,333,25,88,28,040,34*66
$GLGSV,9,5,27,79,76,262,54*54
$GAGSV,9,6,27,12,52,225,46,1,27,140,28,31,83,178,55*6D
$GBGSV,9,7,27,135,37,260,38,130,29,058,28,145,61,237,45,129,75,349,24*62
$GBGSV,9,8,27,136,27,172,39,113,25,195,39,104,27,124,32*65
$GQGSV,9,9,27,195,72,084,30,199,42,164,39,194,49,146,45*77
$GPHCD,05,03,2022,090908.60,0.0000,0.00,0.00,0.03,39.5915739,116.3020153,27.90,0.000,0.000,27.905,2,15*43
$GPHCD,05,03,2022,090908.80,0.0000,0.00,0.00,0.02,39.5915739,116.3020153,27.91,0.000,0.000,27.906,2,15*4E
$GPHCD,05,03,2022,090909.01,0.0000,0.00,0.00,0.02,39.5915739,116.3020153,27.91,0.000,0.000,27.906,2,15*46
$GNRMC,090909.00,A,3959.15739105,N,11630.20152943,E,0.008,0.000,050322,7.1665,W,D*0C
$GPGGA,090909.00,3959.15739105,N,11630.20152943,E,2,15,0.9,37.561,M,-9.654,M,1.0,3356*66
$GPHCD,05,03,2022,090909.20,0.0000,0.00,0.00,0.02,39.5915739,116.3020153,27.91,0.000,0.000,27.907,2,15*44
$GPHCD,05,03,2022,090909.40,0.0000,0.00,0.00,0.03,39.5915739,116.3020153,27.91,0.000,0.000,27.908,2,15*4C
$GPGSV,9,1,27,21,38,048,26,3,25,135,41,19,20,271,27,14,67,312,28*47
$GPGSV,9,2,27,8,18,077,22,30,35,220,32,1,70,060,16,7,21,196, 1*5E
$GPGSV,9,3,27,17,42,284,22*48
$GLGSV,9,4,27,78,36,166,46,82,36,251,33,81,69,333,25,88,28,040,35*67
$GLGSV,9,5,27,79,76,262,55*55
$GAGSV,9,6,27,12,52,225,46,1,27,140,27,31,83,178,55*62
$GBGSV,9,7,27,135,37,260,38,130,29,058,26,145,61,237,46,129,75,349,26*6D
$GBGSV,9,8,27,136,27,172,39,113,25,195,38,104,27,124,*65
$GQGSV,9,9,27,195,72,084,30,199,42,164,40,194,49,146,46*7A
$GPHCD,05,03,2022,090909.60,0.0000,0.00,0.00,0.03,39.5915739,116.3020153,27.91,0.000,0.000,27.909,2,13*49
$GPHCD,05,03,2022,090909.80,0.0000,0.00,0.00,0.02,39.5915739,116.3020153,27.91,0.000,0.000,27.910,2,14*49
$GPHCD,05,03,2022,090910.01,0.0000,0.00,0.00,0.04,39.5915739,116.3020153,27.91,0.000,0.000,27.911,2,13*48
$GNRMC,090910.00,A,3959.15739062,N,11630.20153282,E,0.005,0.000,050322,7.1665,W,D*0E
$GPGGA,090910.00,3959.15739062,N,11630.20153282,E,2,13,1.2,37.566,M,-9.654,M,1.0,3356*62
$GPHCD,05,03,2022,090910.20,0.0000,0.00,0.00,0.03,39.5915739,116.3020153,27.91,0.000,0.000,27.912,2,13*4F
$GPHCD,05,03,2022,090910.40,0.0000,0.00,0.00,0.03,39.5915739,116.3020153,27.91,0.000,0.000,27.913,2,14*4F
$GPGSV,9,1,27,21,38,048,26,3,25,135,41,19,20,271,24,14,67,312,29*45
$GPGSV,9,2,27,8,18,077,23,30,35,220,30,1,70,060,16,7,21,196,15*48
$GPGSV,9,3,27,17,42,284,23*49
$GLGSV,9,4,27,78,36,166,46,82,36,251,34,81,69,333,25,88,28,040,35*60
$GLGSV,9,5,27,79,76,262,54*54
$GAGSV,9,6,27,12,52,225,46,1,27,140,28,31,83,178,55*6D
$GBGSV,9,7,27,135,37,260,38,130,29,058,28,145,61,237,45,129,75,349,23*65
$GBGSV,9,8,27,136,27,172,38,113,25,195,38,104,27,124,*64
$GQGSV,9,9,27,195,72,084,29,199,42,164,40,194,49,146,45*71
$GPHCD,05,03,2022,090910.60,0.0000,0.00,0.00,0.04,39.5915739,116.3020153,27.91,0.000,0.000,27.914,2,13*4A
$GPHCD,05,03,2022,090910.80,0.0000,0.00,0.00,0.04,39.5915739,116.3020153,27.92,0.000,0.000,27.915,2,15*40
$GPHCD,05,03,2022,090911.01,0.0000,0.00,0.00,0.01,39.5915739,116.3020154,27.92,0.000,0.000,27.916,2,13*4F
$GNRMC,090911.00,A,3959.15739000,N,11630.20153547,E,0.012,8.612,050322,7.1665,W,D*0E
$GPGGA,090911.00,3959.15739000,N,11630.20153547,E,2,14,0.9,37.570,M,-9.654,M,1.0,3356*63
$GPHCD,05,03,2022,090911.20,0.0000,0.00,0.00,0.04,39.5915739,116.3020154,27.92,0.000,0.000,27.917,2,13*48
$GPHCD,05,03,2022,090911.40,0.0000,0.00,0.00,0.02,39.5915739,116.3020154,27.92,0.000,0.000,27.918,2,13*47
$GPGSV,9,1,27,21,38,048,27,3,25,135,41,19,20,271,26,14,67,312,29*46
$GPGSV,9,2,27,8,18,077,24,30,35,219,30,1,70,060, 6,7,21,196,16*57
$GPGSV,9,3,27,17,42,284,22*48
$GLGSV,9,4,27,78,36,166,46,82,36,251,35,81,69,333,23,88,28,040,34*66
$GLGSV,9,5,27,79,76,262,54*54
$GAGSV,9,6,27,12,52,225,46,1,27,140,29,31,83,178,55*6C
$GBGSV,9,7,27,135,37,260,38,130,29,058,26,145,61,237,45,129,75,350,25*65
$GBGSV,9,8,27,136,27,172,38,113,25,195,37,104,27,124,*6B
$GQGSV,9,9,27,195,72,084,29,199,42,164,40,194,49,146,46*72
$GPHCD,05,03,2022,090911.60,0.0000,0.00,0.00,0.03,39.5915739,116.3020154,27.92,0.000,0.000,27.919,2,14*42
$GPHCD,05,03,2022,090911.80,0.0000,0.00,0.00,0.03,39.5915739,116.3020154,27.92,0.000,0.000,27.921,2,14*47
$GPHCD,05,03,2022,090912.01,0.0000,0.00,0.00,0.02,39.5915739,116.3020154,27.92,0.000,0.000,27.922,2,14*4F
$GNRMC,090912.00,A,3959.15738894,N,11630.20153830,E,0.017,229.343,050322,7.1665,W,D*01
$GPGGA,090912.00,3959.15738894,N,11630.20153830,E,2,14,1.0,37.577,M,-9.654,M,1.0,3356*66
$GPHCD,05,03,2022,090912.20,0.0000,0.00,0.00,0.06,39.5915739,116.3020154,27.92,0.000,0.000,27.924,2,14*4E
$GPHCD,05,03,2022,090912.40,0.0000,0.00,0.00,0.02,39.5915739,116.3020154,27.93,0.000,0.000,27.926,2,13*48
$GPGSV,9,1,27,21,38,048,26,3,25,135,40,19,20,271,25,14,67,312,29*45
$GPGSV,9,2,27,8,18,077,21,30,35,219,30,1,70,060,11,7,21,196,14*46
$GPGSV,9,3,27,17,42,284,23*49
$GLGSV,9,4,27,78,36,166,46,82,36,251,34,81,69,333,26,88,28,040,35*63
$GLGSV,9,5,27,79,76,262,55*55
$GAGSV,9,6,27,12,52,225,47,1,27,140,30,31,83,178,55*65
$GBGSV,9,7,27,135,37,260,38,130,29,058,27,145,61,237,45,129,75,350,23*62
$GBGSV,9,8,27,136,27,172,38,113,25,195,38,104,27,124,*64
$GQGSV,9,9,27,195,72,084,29,199,42,164,40,194,49,146,46*72
$GPHCD,05,03,2022,090912.60,0.0000,0.00,0.00,0.03,39.5915739,116.3020154,27.93,0.000,0.000,27.928,2,13*45
$GPHCD,05,03,2022,090912.80,0.0000,0.00,0.00,0.03,39.5915739,116.3020154,27.93,0.000,0.000,27.929,2,14*4D
$GPHCD,05,03,2022,090913.01,0.0000,0.00,0.00,0.02,39.5915739,116.3020154,27.93,0.000,0.000,27.931,2,13*4A
$GNRMC,090913.00,A,3959.15738702,N,11630.20154156,E,0.001,0.000,050322,7.1665,W,D*04
$GPGGA,090913.00,3959.15738702,N,11630.20154156,E,2,13,1.0,37.586,M,-9.654,M,1.0,3356*60
$GPHCD,05,03,2022,090913.20,0.0000,0.00,0.00,0.01,39.5915739,116.3020154,27.93,0.000,0.000,27.933,2,13*48
$GPHCD,05,03,2022,090913.40,0.0000,0.00,0.00,0.02,39.5915739,116.3020154,27.94,0.000,0.000,27.935,2,13*4C
$GPGSV,9,1,27,21,38,048,23,3,25,135,40,19,20,271,23,14,67,312,28*47
$GPGSV,9,2,27,8,18,077,19,30,35,219,29,1,70,060, 9,7,20,196,10*59
$GPGSV,9,3,27,17,42,284,26*4C
$GLGSV,9,4,27,78,36,166,46,82,36,251,33,81,69,333,27,88,28,040,34*64
$GLGSV,9,5,27,79,76,262,54*54
$GAGSV,9,6,27,12,52,225,47,1,27,140,31,31,83,178,55*64
$GBGSV,9,7,27,135,37,260,38,130,29,058,28,145,61,237,45,129,75,350,26*68
$GBGSV,9,8,27,136,27,172,38,113,25,195,39,104,27,124,*65
$GQGSV,9,9,27,195,72,084,28,199,42,164,40,194,49,146,46*73
$GPHCD,05,03,2022,090913.60,0.0000,0.00,0.00,0.04,39.5915739,116.3020154,27.94,0.000,0.000,27.937,2,13*4A
$GPHCD,05,03,2022,090913.80,0.0000,0.00,0.00,0.02,39.5915739,116.3020154,27.94,0.000,0.000,27.939,2,12*4D
$GPHCD,05,03,2022,090914.01,0.0000,0.00,0.00,0.01,39.5915738,116.3020154,27.94,0.000,0.000,27.941,2,14*48
$GNRMC,090914.00,A,3959.15738478,N,11630.20154475,E,0.010,296.748,050322,7.1665,W,D*0F
$GPGGA,090914.00,3959.15738478,N,11630.20154475,E,2,12,1.0,37.596,M,-9.654,M,1.0,3356*6D
$GPHCD,05,03,2022,090914.20,0.0000,0.00,0.00,0.02,39.5915738,116.3020155,27.94,0.000,0.000,27.943,2,13*4C
$GPHCD,05,03,2022,090914.40,0.0000,0.00,0.00,0.01,39.5915738,116.3020155,27.94,0.000,0.000,27.944,2,13*4E
$GPGSV,9,1,27,21,38,048,26,3,25,135,40,19,20,271,19,14,67,312,30*42
$GPGSV,9,2,27,8,18,077,17,30,35,219,29,1,70,060, 7,7,20,196,17*5E
$GPGSV,9,3,27,17,42,284,23*49
$GLGSV,9,4,27,78,36,166,46,82,36,251,33,81,69,333,28,88,28,040,35*6A
$GLGSV,9,5,27,79,76,262,54*54
$GAGSV,9,6,27,12,52,225,47,1,27,140,33,31,83,178,55*66
$GBGSV,9,7,27,135,37,260,38,130,29,058,27,145,61,237,45,129,75,350,25*64
$GBGSV,9,8,27,136,27,172,37,113,25,195,38,104,27,124,*6B
$GQGSV,9,9,27,195,72,084,29,199,42,164,40,194,49,146,46*72
$GPHCD,05,03,2022,090914.60,0.0000,0.00,0.00,0.02,39.5915738,116.3020155,27.95,0.000,0.000,27.946,2,13*4C
$GPHCD,05,03,2022,090914.80,0.0000,0.00,0.00,0.02,39.5915738,116.3020155,27.95,0.000,0.000,27.948,2,14*4B
$GPHCD,05,03,2022,090915.01,0.0000,0.00,0.00,0.03,39.5915738,116.3020155,27.95,0.000,0.000,27.950,2,15*4A
$GNRMC,090915.00,A,3959.15738276,N,11630.20154836,E,0.011,252.439,050322,7.1665,W,D*01
$GPGGA,090915.00,3959.15738276,N,11630.20154836,E,2,15,1.1,37.605,M,-9.654,M,1.0,3356*60
$GPHCD,05,03,2022,090915.20,0.0000,0.00,0.00,0.03,39.5915738,116.3020155,27.95,0.000,0.000,27.952,2,15*4B
$GPHCD,05,03,2022,090915.40,0.0000,0.00,0.00,0.02,39.5915738,116.3020155,27.96,0.000,0.000,27.955,2,16*4B
$GPGSV,9,1,27,21,38,048,22,3,25,135,40,19,20,271,24,14,67,312,29*40
$GPGSV,9,2,27,8,18,077,14,30,35,219,29,1,70,060,16,7,20,196,20*49
$GPGSV,9,3,27,17,42,284,24*4E
$GLGSV,9,4,27,78,36,166,46,82,36,251,33,81,69,333,27,88,28,040,34*64
$GLGSV,9,5,27,79,76,262,54*54
$GAGSV,9,6,27,12,52,225,47,1,27,140,33,31,83,178,55*66
$GBGSV,9,7,27,135,37,260,38,130,29,058,28,145,61,237,45,129,75,350,26*68
$GBGSV,9,8,27,136,27,172,37,113,25,195,39,104,27,124,33*6A
$GQGSV,9,9,27,195,72,084,29,199,42,164,39,194,49,146,46*7C
$GPHCD,05,03,2022,090915.60,0.0000,0.00,0.00,0.01,39.5915738,116.3020155,27.96,0.000,0.000,27.957,2,14*4A
$GPHCD,05,03,2022,090915.80,0.0000,0.00,0.00,0.01,39.5915738,116.3020155,27.96,0.000,0.000,27.959,2,15*4B
$GPHCD,05,03,2022,090916.01,0.0000,0.00,0.00,0.04,39.5915738,116.3020155,27.96,0.000,0.000,27.962,2,15*4C
$GNRMC,090916.00,A,3959.15738052,N,11630.20155186,E,0.010,342.396,050322,7.1665,W,D*06
$GPGGA,090916.00,3959.15738052,N,11630.20155186,E,2,15,1.0,37.617,M,-9.654,M,1.0,3356*66
$GPHCD,05,03,2022,090916.20,0.0000,0.00,0.00,0.02,39.5915738,116.3020155,27.96,0.000,0.000,27.964,2,15*4F
$GPHCD,05,03,2022,090916.40,0.0000,0.00,0.00,0.02,39.5915738,116.3020155,27.97,0.000,0.000,27.966,2,15*4A
$GPGSV,9,1,27,21,38,048,22,3,25,135,40,19,20,271,19,14,67,312,31*47
$GPGSV,9,2,27,8,18,077, 6,30,35,219,29,1,70,060,18,7,20,196,23*57
$GPGSV,9,3,27,17,42,284,26*4C
$GLGSV,9,4,27,78,36,166,46,82,36,251,32,81,69,333,28,88,28,040,34*6A
$GLGSV,9,5,27,79,76,262,54*54
$GAGSV,9,6,27,12,52,225,47,1,27,140,33,31,83,178,55*66
$GBGSV,9,7,27,135,37,260,38,130,29,058,27,145,61,237,45,129,75,350,24*65
$GBGSV,9,8,27,136,27,172,37,113,25,195,39,104,27,124,33*6A
$GQGSV,9,9,27,195,72,084,28,199,42,164,40,194,49,146,46*73
$GPHCD,05,03,2022,090916.60,0.0000,0.00,0.00,0.02,39.5915738,116.3020155,27.97,0.000,0.000,27.969,2,15*47
$GPHCD,05,03,2022,090916.80,0.0000,0.00,0.00,0.03,39.5915738,116.3020155,27.97,0.000,0.000,27.971,2,14*40
$GPHCD,05,03,2022,090917.01,0.0000,0.00,0.00,0.04,39.5915738,116.3020156,27.97,0.000,0.000,27.974,2,15*48
$GNRMC,090917.00,A,3959.15737858,N,11630.20155603,E,0.005,0.000,050322,7.1665,W,D*0D
$GPGGA,090917.00,3959.15737858,N,11630.20155603,E,2,15,1.0,37.629,M,-9.654,M,1.0,3356*6D
$GPHCD,05,03,2022,090917.20,0.0000,0.00,0.00,0.02,39.5915738,116.3020156,27.98,0.000,0.000,27.976,2,15*40
$GPHCD,05,03,2022,090917.40,0.0000,0.00,0.00,0.05,39.5915738,116.3020156,27.98,0.000,0.000,27.978,2,15*4F
$GPGSV,9,1,27,21,38,048,20,3,25,135,41,19,20,271,25,14,67,312,31*4B
$GPGSV,9,2,27,8,18,077,20,30,35,219,30,1,70,060,16,7,20,196,26*40
$GPGSV,9,3,27,17,42,284,28*42
$GLGSV,9,4,27,78,36,166,45,82,37,251,32,81,69,333,30,88,28,040,34*61
$GLGSV,9,5,27,79,76,262,54*54
$GAGSV,9,6,27,12,52,225,47,1,27,140,33,31,83,178,55*66
$GBGSV,9,7,27,135,37,260,38,130,29,058,29,145,61,237,45,129,75,350,24*6B
$GBGSV,9,8,27,136,27,172,39,113,25,195,37,104,27,124,33*6A
$GQGSV,9,9,27,195,72,084,29,199,42,164,39,194,49,146,45*7F
$GPHCD,05,03,2022,090917.60,0.0000,0.00,0.00,0.05,39.5915738,116.3020156,27.98,0.000,0.000,27.980,2,16*49
$GPHCD,05,03,2022,090917.80,0.0000,0.00,0.00,0.00,39.5915738,116.3020156,27.98,0.000,0.000,27.983,2,16*41
$GPHCD,05,03,2022,090918.01,0.0000,0.00,0.00,0.05,39.5915738,116.3020156,27.98,0.000,0.000,27.985,2,16*44
$GNRMC,090918.00,A,3959.15737618,N,11630.20155829,E,0.012,322.708,050322,7.1665,W,D*04
$GPGGA,090918.00,3959.15737618,N,11630.20155829,E,2,16,1.0,37.640,M,-9.654,M,1.0,3356*62
$GPHCD,05,03,2022,090918.20,0.0000,0.00,0.00,0.04,39.5915738,116.3020156,27.99,0.000,0.000,27.987,2,16*45
$GPHCD,05,03,2022,090918.40,0.0000,0.00,0.00,0.03,39.5915738,116.3020156,27.99,0.000,0.000,27.989,2,14*48
$GPGSV,9,1,27,21,38,048,23,3,25,135,41,19,20,271,23,14,67,312,32*4D
$GPGSV,9,2,27,8,18,077,11,30,35,219,27,1,70,060,15,7,20,196,20*41
$GPGSV,9,3,27,17,42,284,29*43
$GLGSV,9,4,27,78,36,166,46,82,37,251,33,81,69,333,30,88,28,040,35*62
$GLGSV,9,5,27,79,76,262,55*55
$GAGSV,9,6,27,12,52,225,47,1,27,140,32,31,83,178,55*67
$GBGSV,9,7,27,135,37,260,38,130,29,058,28,145,61,237,45,129,75,350,24*6A
$GBGSV,9,8,27,136,27,172,39,113,25,195,38,104,27,124,32*64
$GQGSV,9,9,27,195,72,084,29,199,42,164,38,194,49,146,46*7D
$GPHCD,05,03,2022,090918.60,0.0000,0.00,0.00,0.03,39.5915737,116.3020156,27.99,0.000,0.000,27.992,2,16*4D
$GPHCD,05,03,2022,090918.80,0.0000,0.00,0.00,0.02,39.5915737,116.3020156,27.99,0.000,0.000,27.994,2,15*47
$GPHCD,05,03,2022,090919.01,0.0000,0.00,0.00,0.04,39.5915737,116.3020156,28.00,0.000,0.000,27.996,2,15*44
$GNRMC,090919.00,A,3959.15737355,N,11630.20156011,E,0.015,260.505,050322,7.1665,W,D*06
$GPGGA,090919.00,3959.15737355,N,11630.20156011,E,2,15,0.9,37.651,M,-9.654,M,1.0,3356*64
$GPHCD,05,03,2022,090919.20,0.0000,0.00,0.00,0.04,39.5915737,116.3020156,28.00,0.000,0.000,27.998,2,15*49
$GPHCD,05,03,2022,090919.40,0.0000,0.00,0.00,0.02,39.5915737,116.3020156,28.00,0.000,0.000,28.000,2,15*4E
$GPGSV,9,1,27,21,38,048,24,3,25,135,41,19,20,271,24,14,67,312,31*4E
$GPGSV,9,2,27,8,18,077,20,30,35,219,25,1,70,060,15,7,20,196,20*41
$GPGSV,9,3,27,17,42,284,29*43
$GLGSV,9,4,27,78,36,166,46,82,37,251,33,81,69,334,30,88,28,040,34*64
$GLGSV,9,5,27,79,76,262,55*55
$GAGSV,9,6,27,12,52,225,47,1,27,140,31,31,83,178,55*64
$GBGSV,9,7,27,135,37,260,38,130,29,058,27,145,61,237,45,129,75,350,23*62
$GBGSV,9,8,27,136,27,172,38,113,25,195,39,104,27,124,32*64
$GQGSV,9,9,27,195,72,084,29,199,42,164,39,194,49,146,47*7D
$GPHCD,05,03,2022,090919.60,0.0000,0.00,0.00,0.02,39.5915737,116.3020156,28.00,0.000,0.000,28.002,2,15*4E
$GPHCD,05,03,2022,090919.80,0.0000,0.00,0.00,0.03,39.5915737,116.3020156,28.00,0.000,0.000,28.004,2,15*47
$GPHCD,05,03,2022,090920.01,0.0000,0.00,0.00,0.06,39.5915737,116.3020156,28.01,0.000,0.000,28.006,2,15*42
$GNRMC,090920.00,A,3959.15737049,N,11630.20156051,E,0.011,336.349,050322,7.1665,W,D*0E
$GPGGA,090920.00,3959.15737049,N,11630.20156051,E,2,13,1.1,37.661,M,-9.654,M,1.0,3356*68
$GPHCD,05,03,2022,090920.20,0.0000,0.00,0.00,0.04,39.5915737,116.3020156,28.01,0.000,0.000,28.008,2,14*4C
$GPHCD,05,03,2022,090920.40,0.0000,0.00,0.00,0.06,39.5915737,116.3020156,28.01,0.000,0.000,28.009,2,14*49
$GPGSV,9,1,27,21,38,048,24,3,25,135,41,19,20,271,25,14,67,312,31*4F
$GPGSV,9,2,27,8,18,077,13,30,35,219,23,1,70,060,17,7,20,196,20*45
$GPGSV,9,3,27,17,42,284,29*43
$GLGSV,9,4,27,78,36,166,46,82,37,251,32,81,69,334,29,88,28,040,35*6C
$GLGSV,9,5,27,79,76,262,55*55
$GAGSV,9,6,27,12,52,225,47,1,27,140,28,31,83,178,55*6C
$GBGSV,9,7,27,135,37,260,38,130,29,058,29,145,61,237,45,129,75,350,23*6C
$GBGSV,9,8,27,136,27,172,38,113,25,195,40,104,27,124,*6B
$GQGSV,9,9,27,195,72,084,29,199,42,164,39,194,49,146,47*7D
$GPHCD,05,03,2022,090920.60,0.0000,0.00,0.00,0.05,39.5915737,116.3020156,28.01,0.000,0.000,28.011,2,14*41
$GPHCD,05,03,2022,090920.80,0.0000,0.00,0.00,0.03,39.5915737,116.3020156,28.01,0.000,0.000,28.012,2,14*4A
$GPHCD,05,03,2022,090921.01,0.0000,0.00,0.00,0.02,39.5915737,116.3020156,28.01,0.000,0.000,28.013,2,14*42
$GNRMC,090921.00,A,3959.15736657,N,11630.20155946,E,0.020,253.923,050322,7.1665,W,D*0D
$GPGGA,090921.00,3959.15736657,N,11630.20155946,E,2,14,0.9,37.668,M,-9.654,M,1.0,3356*6A
$GPHCD,05,03,2022,090921.20,0.0000,0.00,0.00,0.04,39.5915737,116.3020156,28.01,0.000,0.000,28.015,2,13*46
$GPHCD,05,03,2022,090921.40,0.0000,0.00,0.00,0.00,39.5915736,116.3020156,28.02,0.000,0.000,28.016,2,16*40
$GPGSV,9,1,27,21,38,048,27,3,25,135,41,19,20,271,27,14,67,312,31*4E
$GPGSV,9,2,27,8,18,077,15,30,35,219,22,1,70,060,18,7,20,196,22*4F
$GPGSV,9,3,27,17,42,284,29*43
$GLGSV,9,4,27,78,36,166,45,82,37,251,30,81,69,334,29,88,28,040,34*6C
$GLGSV,9,5,27,79,76,262,55*55
$GAGSV,9,6,27,12,52,225,47,1,27,140,31,31,83,178,56*67
$GBGSV,9,7,27,135,37,260,38,130,29,058,27,145,61,237,45,129,75,350,23*62
$GBGSV,9,8,27,136,27,172,38,113,25,195,39,104,27,124,32*64
$GQGSV,9,9,27,195,72,084,29,199,42,164,38,194,49,146,47*7C
$GPHCD,05,03,2022,090921.60,0.0000,0.00,0.00,0.04,39.5915736,116.3020156,28.02,0.000,0.000,28.018,2,15*4B
$GPHCD,05,03,2022,090921.80,0.0000,0.00,0.00,0.03,39.5915736,116.3020156,28.02,0.000,0.000,28.019,2,15*43
$GPHCD,05,03,2022,090922.01,0.0000,0.00,0.00,0.06,39.5915736,116.3020156,28.02,0.000,0.000,28.020,2,15*46
$GNRMC,090922.00,A,3959.15736094,N,11630.20155663,E,0.015,310.398,050322,7.1665,W,D*05
$GPGGA,090922.00,3959.15736094,N,11630.20155663,E,2,15,0.9,37.675,M,-9.654,M,1.0,3356*65
$GPHCD,05,03,2022,090922.20,0.0000,0.00,0.00,0.05,39.5915736,116.3020156,28.02,0.000,0.000,28.021,2,15*47
$GPHCD,05,03,2022,090922.40,0.0000,0.00,0.00,0.03,39.5915736,116.3020156,28.02,0.000,0.000,28.022,2,14*45
$GPGSV,9,1,27,21,38,048,27,3,25,135,41,19,20,271,24,14,67,312,31*4D
$GPGSV,9,2,27,8,18,077,13,30,35,219,23,1,70,060,16,7,20,196,23*47
$GPGSV,9,3,27,17,42,284,28*42
$GLGSV,9,4,27,78,36,166,45,82,37,251,31,81,69,334,29,88,28,040,34*6D
$GLGSV,9,5,27,79,76,262,55*55
$GAGSV,9,6,27,12,52,225,47,1,27,140,31,31,83,178,56*67
$GBGSV,9,7,27,135,37,260,37,130,29,058,26,145,61,237,45,129,75,350,24*6B
$GBGSV,9,8,27,136,27,172,38,113,25,195,40,104,27,124,32*6A
$GQGSV,9,9,27,195,72,084,30,199,42,164,38,194,49,146,47*74
$GPHCD,05,03,2022,090922.60,0.0000,0.00,0.00,0.04,39.5915736,116.3020155,28.02,0.000,0.000,28.024,2,15*44
$GPHCD,05,03,2022,090922.80,0.0000,0.00,0.00,0.03,39.5915736,116.3020155,28.03,0.000,0.000,28.025,2,16*4E
$GPHCD,05,03,2022,090923.01,0.0000,0.00,0.00,0.05,39.5915736,116.3020155,28.03,0.000,0.000,28.026,2,15*40
$GNRMC,090923.00,A,3959.15735442,N,11630.20155267,E,0.004,0.000,050322,7.1665,W,D*08
