$GPHCD,05,03,2022,091305.21,0.0000,0.00,0.00,0.04,39.5915620,116.3020088,30.33,0.000,0.000,30.325,2,16*4B
$GPHCD,05,03,2022,091305.41,0.0000,0.00,0.00,0.01,39.5915620,116.3020088,30.33,0.000,0.000,30.325,2,16*48
$GPGSV,9,1,26,21,37,048,21,3,27,134,44,19,21,272,31,14,69,311,36*4F
$GPGSV,9,2,26,8,16,078,30,30,33,218,22,1,68,057,36,7,19,195,33*47
$GPGSV,9,3,26,17,43,286,24*4C
$GLGSV,9,4,26,78,34,167,48,82,38,254,32,81,68,339,33,88,26,041,22*64
$GLGSV,9,5,26,79,76,253,57*54
$GAGSV,9,6,26,12,53,227,49,1,26,141,39,31,81,176,57*6E
$GBGSV,9,7,26,130,27,059,24,145,60,234,52,129,74,355,26,120,11,116,31*61
$GBGSV,9,8,26,113,26,196,37,104,27,124,31*66
$GQGSV,9,9,26,195,72,084,36,199,42,164,40,194,48,147,44*7F
$GPHCD,05,03,2022,091305.61,0.0000,0.00,0.00,0.03,39.5915620,116.3020088,30.33,0.000,0.000,30.325,2,16*48
$GPHCD,05,03,2022,091305.81,0.0000,0.00,0.00,0.03,39.5915620,116.3020088,30.33,0.000,0.000,30.326,2,16*45
$GPHCD,05,03,2022,091306.01,0.0000,0.00,0.00,0.02,39.5915620,116.3020088,30.33,0.000,0.000,30.326,2,16*4F
$GNRMC,091306.00,A,3959.15620295,N,11630.20087765,E,0.012,322.600,050322,7.1665,W,D*06
$GPGGA,091306.00,3959.15620295,N,11630.20087765,E,2,16,1.0,39.980,M,-9.654,M,34.0,3356*52
$GPHCD,05,03,2022,091306.21,0.0000,0.00,0.00,0.05,39.5915620,116.3020088,30.33,0.000,0.000,30.326,2,16*4A
$GPHCD,05,03,2022,091306.41,0.0000,0.00,0.00,0.04,39.5915620,116.3020088,30.33,0.000,0.000,30.327,2,16*4C
$GPGSV,9,1,26,21,37,048,22,3,27,134,44,19,21,272,32,14,69,311,36*4F
$GPGSV,9,2,26,8,16,078,29,30,33,218,25,1,68,057,37,7,19,195,33*49
$GPGSV,9,3,26,17,43,286,23*4B
$GLGSV,9,4,26,78,34,167,48,82,38,254,31,81,68,339,32,88,26,041,19*6E
$GLGSV,9,5,26,79,76,253,57*54
$GAGSV,9,6,26,12,53,227,49,1,26,141,40,31,81,176,57*60
$GBGSV,9,7,26,130,27,059,23,145,60,234,52,129,74,355,26,120,11,116,29*6F
$GBGSV,9,8,26,113,26,196,37,104,27,124,32*65
$GQGSV,9,9,26,195,72,084,36,199,42,164,40,194,48,147,44*7F
$GPHCD,05,03,2022,091306.61,0.0000,0.00,0.00,0.03,39.5915620,116.3020088,30.33,0.000,0.000,30.327,2,16*49
$GPHCD,05,03,2022,091306.81,0.0000,0.00,0.00,0.02,39.5915620,116.3020088,30.33,0.000,0.000,30.327,2,16*46
$GPHCD,05,03,2022,091307.01,0.0000,0.00,0.00,0.07,39.5915620,116.3020088,30.33,0.000,0.000,30.327,2,16*4A
$GNRMC,091307.00,A,3959.15620162,N,11630.20087691,E,0.020,348.870,050322,7.1665,W,D*02
$GPGGA,091307.00,3959.15620162,N,11630.20087691,E,2,16,0.9,39.982,M,-9.654,M,35.0,3356*59
$GPHCD,05,03,2022,091307.21,0.0000,0.00,0.00,0.05,39.5915620,116.3020088,30.33,0.000,0.000,30.328,2,16*45
$GPHCD,05,03,2022,091307.41,0.0000,0.00,0.00,0.05,39.5915620,116.3020088,30.33,0.000,0.000,30.328,2,16*43
$GPGSV,9,1,26,21,37,048,23,3,27,134,44,19,21,272,32,14,69,311,35*4D
$GPGSV,9,2,26,8,16,079,29,30,33,218,24,1,68,057,36,7,19,195,35*4E
$GPGSV,9,3,26,17,43,286,22*4A
$GLGSV,9,4,26,78,34,167,48,82,38,254,32,81,68,339,32,88,26,041,18*6C
$GLGSV,9,5,26,79,76,252,57*55
$GAGSV,9,6,26,12,53,227,49,1,26,141,41,31,81,176,57*61
$GBGSV,9,7,26,130,27,059,24,145,60,234,52,129,74,355,26,120,11,116,26*67
$GBGSV,9,8,26,113,26,196,37,104,27,124,31*66
$GQGSV,9,9,26,195,72,084,35,199,42,164,40,194,48,147,44*7C
$GPHCD,05,03,2022,091307.60,0.0000,0.00,0.00,0.04,39.5915620,116.3020088,30.33,0.000,0.000,30.328,2,16*41
$GPHCD,05,03,2022,091307.81,0.0000,0.00,0.00,0.02,39.5915620,116.3020088,30.33,0.000,0.000,30.328,2,15*4B
$GPHCD,05,03,2022,091308.01,0.0000,0.00,0.00,0.02,39.5915620,116.3020088,30.33,0.000,0.000,30.329,2,16*4E
$GNRMC,091308.00,A,3959.15620010,N,11630.20087582,E,0.014,343.574,050322,7.1665,W,D*0D
$GPGGA,091308.00,3959.15620010,N,11630.20087582,E,2,16,0.9,39.983,M,-9.654,M,36.0,3356*51
$GPHCD,05,03,2022,091308.21,0.0000,0.00,0.00,0.04,39.5915620,116.3020088,30.33,0.000,0.000,30.329,2,16*4A
$GPHCD,05,03,2022,091308.41,0.0000,0.00,0.00,0.04,39.5915620,116.3020088,30.33,0.000,0.000,30.329,2,14*4E
$GPGSV,9,1,26,21,37,048,24,3,27,134,44,19,21,272,32,14,69,311,35*4A
$GPGSV,9,2,26,8,16,079,30,30,33,218,23,1,68,057,35,7,19,195,35*42
$GPGSV,9,3,26,17,43,286,23*4B
$GLGSV,9,4,26,78,34,167,48,82,38,254,33,81,68,339,32,88,26,041,17*62
$GLGSV,9,5,26,79,76,252,57*55
$GAGSV,9,6,26,12,53,227,49,1,26,141,41,31,81,176,57*61
$GBGSV,9,7,26,130,27,059,24,145,60,234,52,129,74,355,24,120,11,116,29*6A
$GBGSV,9,8,26,113,26,196,38,104,27,124,*6B
$GQGSV,9,9,26,195,72,084,37,199,42,164,40,194,48,147,44*7E
$GPHCD,05,03,2022,091308.61,0.0000,0.00,0.00,0.04,39.5915620,116.3020088,30.33,0.000,0.000,30.329,2,14*4C
$GPHCD,05,03,2022,091308.81,0.0000,0.00,0.00,0.03,39.5915620,116.3020088,30.33,0.000,0.000,30.330,2,13*4A
$GPHCD,05,03,2022,091309.01,0.0000,0.00,0.00,0.04,39.5915620,116.3020087,30.33,0.000,0.000,30.330,2,14*4C
$GNRMC,091309.00,A,3959.15619879,N,11630.20087487,E,0.015,210.132,050322,7.1665,W,D*05
$GPGGA,091309.00,3959.15619879,N,11630.20087487,E,2,14,1.0,39.984,M,-9.654,M,37.0,3356*55
$GPHCD,05,03,2022,091309.21,0.0000,0.00,0.00,0.04,39.5915620,116.3020087,30.33,0.000,0.000,30.330,2,15*4F
$GPHCD,05,03,2022,091309.41,0.0000,0.00,0.00,0.02,39.5915620,116.3020087,30.33,0.000,0.000,30.331,2,15*4E
$GPGSV,9,1,26,21,37,048,24,3,27,134,43,19,21,272,31,14,69,311,34*4F
$GPGSV,9,2,26,8,16,079,28,30,33,218,24,1,68,057,35,7,19,195,35*4C
$GPGSV,9,3,26,17,43,286,22*4A
$GLGSV,9,4,26,78,34,167,48,82,38,254,33,81,68,339,33,88,26,041,20*67
$GLGSV,9,5,26,79,76,252,57*55
$GAGSV,9,6,26,12,53,227,49,1,26,141,41,31,81,176,57*61
$GBGSV,9,7,26,130,27,059,24,145,60,234,52,129,74,355,26,120,11,116,30*60
$GBGSV,9,8,26,113,26,196,37,104,27,124,*64
$GQGSV,9,9,26,195,72,084,37,199,42,164,40,194,48,147,44*7E
$GPHCD,05,03,2022,091309.60,0.0000,0.00,0.00,0.02,39.5915620,116.3020087,30.33,0.000,0.000,30.331,2,14*4C
$GPHCD,05,03,2022,091309.80,0.0000,0.00,0.00,0.01,39.5915620,116.3020087,30.33,0.000,0.000,30.331,2,14*41
$GPHCD,05,03,2022,091310.01,0.0000,0.00,0.00,0.02,39.5915620,116.3020087,30.33,0.000,0.000,30.332,2,14*40
$GNRMC,091310.00,A,3959.15619781,N,11630.20087425,E,0.007,0.000,050322,7.1665,W,D*0D
$GPGGA,091310.00,3959.15619781,N,11630.20087425,E,2,14,1.0,39.986,M,-9.654,M,38.0,3356*50
$GPHCD,05,03,2022,091310.20,0.0000,0.00,0.00,0.03,39.5915620,116.3020087,30.33,0.000,0.000,30.332,2,14*42
$GPHCD,05,03,2022,091310.40,0.0000,0.00,0.00,0.03,39.5915620,116.3020087,30.33,0.000,0.000,30.332,2,14*44
$GPGSV,9,1,26,21,37,048,24,3,27,134,43,19,21,272,25,14,69,311,34*4A
$GPGSV,9,2,26,8,16,079,28,30,33,218,26,1,68,057,34,7,19,195,35*4F
$GPGSV,9,3,26,17,43,286,23*4B
$GLGSV,9,4,26,78,34,167,48,82,38,254,34,81,68,339,32,88,26,041,19*6B
$GLGSV,9,5,26,79,76,252,57*55
$GAGSV,9,6,26,12,53,227,49,1,26,141,41,31,81,176,57*61
$GBGSV,9,7,26,130,27,059,25,145,60,234,52,129,74,355,24,120,11,116,29*6B
$GBGSV,9,8,26,113,26,196,36,104,27,124,*65
$GQGSV,9,9,26,195,72,084,36,199,42,164,40,194,48,147,44*7F
$GPHCD,05,03,2022,091310.60,0.0000,0.00,0.00,0.04,39.5915620,116.3020087,30.33,0.000,0.000,30.333,2,14*40
$GPHCD,05,03,2022,091310.80,0.0000,0.00,0.00,0.02,39.5915620,116.3020087,30.33,0.000,0.000,30.334,2,14*4F
$GPHCD,05,03,2022,091311.01,0.0000,0.00,0.00,0.02,39.5915620,116.3020087,30.33,0.000,0.000,30.334,2,15*46
$GNRMC,091311.00,A,3959.15619660,N,11630.20087351,E,0.021,228.707,050322,7.1665,W,D*0A
$GPGGA,091311.00,3959.15619660,N,11630.20087351,E,2,15,0.9,39.988,M,-9.654,M,39.0,3356*5D
$GPHCD,05,03,2022,091311.20,0.0000,0.00,0.00,0.06,39.5915620,116.3020087,30.33,0.000,0.000,30.335,2,15*40
$GPHCD,05,03,2022,091311.40,0.0000,0.00,0.00,0.01,39.5915620,116.3020087,30.33,0.000,0.000,30.335,2,16*42
$GPGSV,9,1,26,21,37,048,22,3,27,134,43,19,21,272,31,14,69,311,34*49
$GPGSV,9,2,26,8,16,079,26,30,33,218,23,1,68,057,34,7,19,195,35*44
$GPGSV,9,3,26,17,43,286,25*4D
$GLGSV,9,4,26,78,34,167,48,82,38,254,34,81,68,339,32,88,26,041,19*6B
$GLGSV,9,5,26,79,76,252,57*55
$GAGSV,9,6,26,12,53,227,49,1,26,141,39,31,81,176,57*6E
$GBGSV,9,7,26,130,27,059,26,145,60,234,52,129,74,355,25,120,11,116,32*63
$GBGSV,9,8,26,113,26,196,36,104,27,124,33*65
$GQGSV,9,9,26,195,72,084,38,199,42,164,39,194,48,147,44*7F
$GPHCD,05,03,2022,091311.60,0.0000,0.00,0.00,0.01,39.5915620,116.3020087,30.34,0.000,0.000,30.336,2,16*44
$GPHCD,05,03,2022,091311.80,0.0000,0.00,0.00,0.02,39.5915620,116.3020087,30.34,0.000,0.000,30.336,2,14*4B
$GPHCD,05,03,2022,091312.01,0.0000,0.00,0.00,0.03,39.5915620,116.3020087,30.34,0.000,0.000,30.337,2,14*41
$GNRMC,091312.00,A,3959.15619518,N,11630.20087277,E,0.004,0.000,050322,7.1665,W,D*0F
$GPGGA,091312.00,3959.15619518,N,11630.20087277,E,2,15,0.9,39.991,M,-9.654,M,40.0,3356*51
$GPHCD,05,03,2022,091312.20,0.0000,0.00,0.00,0.02,39.5915620,116.3020087,30.34,0.000,0.000,30.338,2,15*4D
$GPHCD,05,03,2022,091312.40,0.0000,0.00,0.00,0.03,39.5915619,116.3020087,30.34,0.000,0.000,30.338,2,15*40
$GPGSV,9,1,26,21,37,048,25,3,27,134,43,19,21,272,32,14,69,311,35*4C
$GPGSV,9,2,26,8,16,079,28,30,33,218,26,1,68,057,33,7,19,195,35*48
$GPGSV,9,3,26,17,43,286,24*4C
$GLGSV,9,4,26,78,34,167,49,82,38,254,32,81,68,339,33,88,26,041,18*6C
$GLGSV,9,5,26,79,76,252,57*55
$GAGSV,9,6,26,12,53,227,49,1,26,141,41,31,81,176,57*61
$GBGSV,9,7,26,130,27,059,27,145,60,234,52,129,74,355,22,120,11,116,34*63
$GBGSV,9,8,26,113,26,196,37,104,27,124,*64
$GQGSV,9,9,26,195,72,084,38,199,42,164,40,194,48,147,44*71
$GPHCD,05,03,2022,091312.60,0.0000,0.00,0.00,0.00,39.5915619,116.3020087,30.34,0.000,0.000,30.339,2,15*40
$GPHCD,05,03,2022,091312.80,0.0000,0.00,0.00,0.03,39.5915619,116.3020087,30.34,0.000,0.000,30.340,2,15*43
$GPHCD,05,03,2022,091313.01,0.0000,0.00,0.00,0.06,39.5915619,116.3020087,30.34,0.000,0.000,30.340,2,16*4D
$GNRMC,091313.00,A,3959.15619358,N,11630.20087220,E,0.011,347.371,050322,7.1665,W,D*0F
$GPGGA,091313.00,3959.15619358,N,11630.20087220,E,2,16,0.9,39.995,M,-9.654,M,41.0,3356*56
$GPHCD,05,03,2022,091313.20,0.0000,0.00,0.00,0.03,39.5915619,116.3020087,30.34,0.000,0.000,30.341,2,16*4A
$GPHCD,05,03,2022,091313.40,0.0000,0.00,0.00,0.04,39.5915619,116.3020087,30.34,0.000,0.000,30.342,2,16*48
$GPGSV,9,1,26,21,37,048,27,3,27,134,43,19,21,272,31,14,69,311,35*4D
$GPGSV,9,2,26,8,16,079,26,30,33,218,26,1,68,057,33,7,19,195,35*46
$GPGSV,9,3,26,17,43,286,20*48
$GLGSV,9,4,26,78,34,167,48,82,38,254,33,81,68,339,33,88,26,041,22*65
$GLGSV,9,5,26,79,76,252,57*55
$GAGSV,9,6,26,12,53,227,50,1,26,141,42,31,81,176,58*65
$GBGSV,9,7,26,130,27,059,25,145,60,234,52,129,74,355,23,120,11,116,32*66
$GBGSV,9,8,26,113,26,196,36,104,27,124,31*67
$GQGSV,9,9,26,195,72,084,36,199,42,164,40,194,48,147,44*7F
$GPHCD,05,03,2022,091313.60,0.0000,0.00,0.00,0.02,39.5915619,116.3020087,30.34,0.000,0.000,30.342,2,16*4C
$GPHCD,05,03,2022,091313.80,0.0000,0.00,0.00,0.03,39.5915619,116.3020087,30.34,0.000,0.000,30.343,2,16*42
$GPHCD,05,03,2022,091314.01,0.0000,0.00,0.00,0.05,39.5915619,116.3020087,30.34,0.000,0.000,30.344,2,16*4D
$GNRMC,091314.00,A,3959.15619194,N,11630.20087187,E,0.014,356.118,050322,7.1665,W,D*0C
$GPGGA,091314.00,3959.15619194,N,11630.20087187,E,2,16,0.9,39.998,M,-9.654,M,42.0,3356*53
$GPHCD,05,03,2022,091314.20,0.0000,0.00,0.00,0.05,39.5915619,116.3020087,30.35,0.000,0.000,30.345,2,16*4E
$GPHCD,05,03,2022,091314.40,0.0000,0.00,0.00,0.08,39.5915619,116.3020087,30.35,0.000,0.000,30.345,2,16*45
$GPGSV,9,1,26,21,37,048,27,3,27,134,43,19,21,272,31,14,69,311,35*4D
$GPGSV,9,2,26,8,16,079,27,30,33,218,26,1,68,057,33,7,19,195,36*44
$GPGSV,9,3,26,17,43,286,18*43
$GLGSV,9,4,26,78,34,167,48,82,38,254,32,81,68,339,33,88,26,041,21*67
$GLGSV,9,5,26,79,76,252,57*55
$GAGSV,9,6,26,12,53,227,49,1,26,141,42,31,81,176,58*6D
$GBGSV,9,7,26,130,27,059,26,145,60,234,52,129,74,355,22,120,11,116,32*64
$GBGSV,9,8,26,113,26,196,36,104,27,124,32*64
$GQGSV,9,9,26,195,72,084,36,199,42,164,40,194,48,147,45*7E
$GPHCD,05,03,2022,091314.60,0.0000,0.00,0.00,0.03,39.5915619,116.3020087,30.35,0.000,0.000,30.346,2,16*4F
$GPHCD,05,03,2022,091314.80,0.0000,0.00,0.00,0.05,39.5915619,116.3020087,30.35,0.000,0.000,30.347,2,16*46
$GPHCD,05,03,2022,091315.01,0.0000,0.00,0.00,0.02,39.5915619,116.3020087,30.35,0.000,0.000,30.348,2,16*46
$GNRMC,091315.00,A,3959.15619026,N,11630.20087169,E,0.007,0.000,050322,7.1665,W,D*0F
$GPGGA,091315.00,3959.15619026,N,11630.20087169,E,2,16,0.9,40.002,M,-9.654,M,43.0,3356*5F
$GPHCD,05,03,2022,091315.20,0.0000,0.00,0.00,0.03,39.5915619,116.3020087,30.35,0.000,0.000,30.348,2,16*44
$GPHCD,05,03,2022,091315.40,0.0000,0.00,0.00,0.04,39.5915619,116.3020087,30.35,0.000,0.000,30.349,2,16*44
$GPGSV,9,1,27,21,37,048,25,3,27,134,44,19,21,272,30,14,69,311,36*4B
$GPGSV,9,2,27,8,16,079,28,30,33,218,28,1,68,057,33,7,19,195,35*47
$GPGSV,9,3,27,17,43,286,20*49
$GLGSV,9,4,27,78,34,167,47,82,38,254,32,81,68,339,33,88,26,041,22*6A
$GLGSV,9,5,27,79,76,252,57*54
$GAGSV,9,6,27,12,53,227,50,1,26,141,42,31,81,176,57*6B
$GBGSV,9,7,27,135,38,261,31,130,27,059,24,145,60,234,52,129,74,356,22*6B
$GBGSV,9,8,27,120,11,116,34,113,26,196,36,104,27,124,31*64
$GQGSV,9,9,27,195,72,084,37,199,42,164,40,194,48,147,45*7E
$GPHCD,05,03,2022,091315.60,0.0000,0.00,0.00,0.02,39.5915619,116.3020087,30.35,0.000,0.000,30.350,2,16*48
$GPHCD,05,03,2022,091315.80,0.0000,0.00,0.00,0.04,39.5915619,116.3020087,30.35,0.000,0.000,30.351,2,16*41
$GPHCD,05,03,2022,091316.01,0.0000,0.00,0.00,0.02,39.5915619,116.3020087,30.35,0.000,0.000,30.352,2,16*4E
$GNRMC,091316.00,A,3959.15618857,N,11630.20087162,E,0.007,0.000,050322,7.1665,W,D*08
$GPGGA,091316.00,3959.15618857,N,11630.20087162,E,2,16,0.9,40.006,M,-9.654,M,44.0,3356*5B
$GPHCD,05,03,2022,091316.20,0.0000,0.00,0.00,0.01,39.5915619,116.3020087,30.35,0.000,0.000,30.352,2,16*4E
$GPHCD,05,03,2022,091316.40,0.0000,0.00,0.00,0.02,39.5915619,116.3020087,30.35,0.000,0.000,30.353,2,15*49
$GPGSV,9,1,27,21,37,048,24,3,27,134,44,19,21,272,30,14,69,311,36*4A
$GPGSV,9,2,27,8,16,079,29,30,33,218,29,1,68,057,30,7,19,195,36*47
$GPGSV,9,3,27,17,43,286,16*4C
$GLGSV,9,4,27,78,34,167,48,82,38,254,31,81,68,339,35,88,26,041,20*62
$GLGSV,9,5,27,79,76,252,58*5B
$GAGSV,9,6,27,12,53,227,50,1,26,141,41,31,81,176,57*68
$GBGSV,9,7,27,135,38,261,31,130,27,059,26,145,60,234,52,129,74,356,24*6F
$GBGSV,9,8,27,120,11,116,32,113,26,196,35,104,27,124,28*69
$GQGSV,9,9,27,195,72,084,36,199,42,164,39,194,48,147,45*71
$GPHCD,05,03,2022,091316.60,0.0000,0.00,0.00,0.02,39.5915619,116.3020087,30.35,0.000,0.000,30.354,2,16*4F
$GPHCD,05,03,2022,091316.80,0.0000,0.00,0.00,0.03,39.5915619,116.3020087,30.35,0.000,0.000,30.355,2,16*41
$GPHCD,05,03,2022,091317.01,0.0000,0.00,0.00,0.02,39.5915619,116.3020087,30.35,0.000,0.000,30.355,2,15*4B
$GNRMC,091317.00,A,3959.15618692,N,11630.20087159,E,0.012,323.275,050322,7.1665,W,D*00
$GPGGA,091317.00,3959.15618692,N,11630.20087159,E,2,15,0.9,40.010,M,-9.654,M,45.0,3356*50
$GPHCD,05,03,2022,091317.20,0.0000,0.00,0.00,0.04,39.5915619,116.3020087,30.36,0.000,0.000,30.356,2,15*4E
$GPHCD,05,03,2022,091317.40,0.0000,0.00,0.00,0.03,39.5915619,116.3020087,30.36,0.000,0.000,30.357,2,14*4F
$GPGSV,9,1,27,21,37,048,25,3,27,134,42,19,21,272,31,14,69,311,36*4C
$GPGSV,9,2,27,8,16,079,26,30,33,218,31,1,68,057,29,7,19,195,35*4A
$GPGSV,9,3,27,17,43,286,18*42
$GLGSV,9,4,27,78,34,167,49,82,38,254,32,81,68,339,32,88,26,041,26*61
$GLGSV,9,5,27,79,76,252,58*5B
$GAGSV,9,6,27,12,53,227,50,1,26,141,43,31,81,176,57*6A
$GBGSV,9,7,27,135,38,261,33,130,27,059,24,145,60,234,51,129,74,356,23*6B
$GBGSV,9,8,27,120,11,116,32,113,26,196,38,104,27,124,*6E
$GQGSV,9,9,27,195,72,084,35,199,42,164,39,194,48,147,45*72
$GPHCD,05,03,2022,091317.60,0.0000,0.00,0.00,0.06,39.5915619,116.3020087,30.36,0.000,0.000,30.358,2,14*47
$GPHCD,05,03,2022,091317.80,0.0000,0.00,0.00,0.04,39.5915619,116.3020087,30.36,0.000,0.000,30.359,2,14*4A
$GPHCD,05,03,2022,091318.01,0.0000,0.00,0.00,0.04,39.5915619,116.3020087,30.36,0.000,0.000,30.360,2,14*46
$GNRMC,091318.00,A,3959.15618503,N,11630.20087147,E,0.014,332.248,050322,7.1665,W,D*03
$GPGGA,091318.00,3959.15618503,N,11630.20087147,E,2,14,0.8,40.014,M,-9.654,M,46.0,3356*5C
$GPHCD,05,03,2022,091318.20,0.0000,0.00,0.00,0.05,39.5915618,116.3020087,30.36,0.000,0.000,30.361,2,14*44
$GPHCD,05,03,2022,091318.40,0.0000,0.00,0.00,0.09,39.5915618,116.3020087,30.36,0.000,0.000,30.362,2,13*4A
$GPGSV,9,1,27,21,37,048,27,3,27,134,44,19,21,272,30,14,69,311,36*49
$GPGSV,9,2,27,8,16,079,27,30,33,218,30,1,68,057,27,7,19,195,36*47
$GPGSV,9,3,27,17,43,286,14*4E
$GLGSV,9,4,27,78,34,167,49,82,38,254,33,81,68,339,32,88,26,041,23*65
$GLGSV,9,5,27,79,76,252,58*5B
$GAGSV,9,6,27,12,53,227,50,1,26,141,42,31,81,176,57*6B
$GBGSV,9,7,27,135,38,261,32,130,27,059,25,145,60,234,51,129,74,356,23*6B
$GBGSV,9,8,27,120,11,116,32,113,26,196,39,104,27,124,*6F
$GQGSV,9,9,27,195,72,084,36,199,42,164,39,194,48,147,46*72
$GPHCD,05,03,2022,091318.60,0.0000,0.00,0.00,0.06,39.5915618,116.3020087,30.36,0.000,0.000,30.362,2,13*47
$GPHCD,05,03,2022,091318.80,0.0000,0.00,0.00,0.05,39.5915618,116.3020087,30.36,0.000,0.000,30.363,2,13*4B
$GPHCD,05,03,2022,091319.01,0.0000,0.00,0.00,0.01,39.5915618,116.3020087,30.36,0.000,0.000,30.364,2,13*40
$GNRMC,091319.00,A,3959.15618291,N,11630.20087112,E,0.005,0.000,050322,7.1665,W,D*02
$GPGGA,091319.00,3959.15618291,N,11630.20087112,E,2,14,0.8,40.019,M,-9.654,M,47.0,3356*5D
$GPHCD,05,03,2022,091319.20,0.0000,0.00,0.00,0.02,39.5915618,116.3020087,30.37,0.000,0.000,30.365,2,14*47
$GPHCD,05,03,2022,091319.40,0.0000,0.00,0.00,0.02,39.5915618,116.3020087,30.37,0.000,0.000,30.366,2,14*42
$GPGSV,9,1,27,21,37,048,27,3,27,134,44,19,21,272,30,14,69,311,36*49
$GPGSV,9,2,27,8,16,079,25,30,33,218,32,1,68,057,26,7,19,195,35*45
$GPGSV,9,3,27,17,43,286,19*43
$GLGSV,9,4,27,78,34,167,50,82,38,254,34,81,68,339,32,88,26,041,26*6F
$GLGSV,9,5,27,79,76,252,58*5B
$GAGSV,9,6,27,12,53,227,50,1,26,141,42,31,81,176,58*64
$GBGSV,9,7,27,135,38,261,31,130,27,059,25,145,60,234,52,129,74,356,22*6A
$GBGSV,9,8,27,120,11,116,31,113,26,196,38,104,27,124,*6D
$GQGSV,9,9,27,195,72,084,36,199,42,164,40,194,48,147,46*7C
$GPHCD,05,03,2022,091319.60,0.0000,0.00,0.00,0.02,39.5915618,116.3020087,30.37,0.000,0.000,30.367,2,14*41
$GPHCD,05,03,2022,091319.80,0.0000,0.00,0.00,0.03,39.5915618,116.3020087,30.37,0.000,0.000,30.368,2,14*41
$GPHCD,05,03,2022,091320.01,0.0000,0.00,0.00,0.03,39.5915618,116.3020087,30.37,0.000,0.000,30.369,2,14*43
$GNRMC,091320.00,A,3959.15618053,N,11630.20087065,E,0.015,7.582,050322,7.1665,W,D*0C
$GPGGA,091320.00,3959.15618053,N,11630.20087065,E,2,14,0.8,40.023,M,-9.654,M,48.0,3356*5C
$GPHCD,05,03,2022,091320.20,0.0000,0.00,0.00,0.07,39.5915618,116.3020087,30.37,0.000,0.000,30.369,2,14*44
$GPHCD,05,03,2022,091320.40,0.0000,0.00,0.00,0.08,39.5915618,116.3020087,30.37,0.000,0.000,30.370,2,14*45
$GPGSV,9,1,27,21,37,048,26,3,27,134,43,19,21,272,31,14,69,311,36*4E
$GPGSV,9,2,27,8,16,079,24,30,33,218,30,1,68,057,26,7,19,195,33*40
$GPGSV,9,3,27,17,43,286,22*4B
$GLGSV,9,4,27,78,34,167,50,82,38,254,34,81,68,339,32,88,26,041,26*6F
$GLGSV,9,5,27,79,76,252,58*5B
$GAGSV,9,6,27,12,53,227,50,1,26,141,42,31,81,176,57*6B
$GBGSV,9,7,27,135,38,261,32,130,27,059,25,145,60,234,52,129,74,356,21*6A
$GBGSV,9,8,27,120,11,116,32,113,26,196,39,104,27,124,*6F
$GQGSV,9,9,27,195,72,084,35,199,42,164,40,194,48,147,45*7C
$GPHCD,05,03,2022,091320.60,0.0000,0.00,0.00,0.08,39.5915618,116.3020087,30.37,0.000,0.000,30.371,2,14*46
$GPHCD,05,03,2022,091320.80,0.0000,0.00,0.00,0.07,39.5915618,116.3020087,30.37,0.000,0.000,30.372,2,14*44
$GPHCD,05,03,2022,091321.01,0.0000,0.00,0.00,0.07,39.5915618,116.3020087,30.37,0.000,0.000,30.373,2,14*4D
$GNRMC,091321.00,A,3959.15617798,N,11630.20087005,E,0.030,348.875,050322,7.1665,W,D*0E
$GPGGA,091321.00,3959.15617798,N,11630.20087005,E,2,14,1.0,40.027,M,-9.654,M,49.0,3356*58
$GPHCD,05,03,2022,091321.20,0.0000,0.00,0.00,0.08,39.5915618,116.3020087,30.37,0.000,0.000,30.374,2,14*46
$GPHCD,05,03,2022,091321.40,0.0000,0.00,0.00,0.09,39.5915618,116.3020087,30.37,0.000,0.000,30.375,2,14*40
$GPGSV,9,1,27,21,37,048,25,3,27,134,43,19,21,272,30,14,69,311,36*4C
$GPGSV,9,2,27,8,16,079,22,30,33,218,29,1,68,057,26,7,19,195,34*49
$GPGSV,9,3,27,17,43,286,22*4B
$GLGSV,9,4,27,78,34,167,50,82,38,254,35,81,68,339,31,88,26,041,25*6E
$GLGSV,9,5,27,79,76,252,57*54
$GAGSV,9,6,27,12,53,227,50,1,26,141,41,31,81,176,57*68
$GBGSV,9,7,27,135,38,261,31,130,27,059,26,145,60,234,53,129,74,356,22*68
$GBGSV,9,8,27,120,11,116,32,113,26,196,39,104,27,124,*6F
$GQGSV,9,9,27,195,72,084,35,199,42,164,40,194,48,147,46*7F
$GPHCD,05,03,2022,091321.60,0.0000,0.00,0.00,0.04,39.5915618,116.3020087,30.37,0.000,0.000,30.375,2,14*4F
$GPHCD,05,03,2022,091321.80,0.0000,0.00,0.00,0.04,39.5915618,116.3020087,30.38,0.000,0.000,30.376,2,14*4D
$GPHCD,05,03,2022,091322.01,0.0000,0.00,0.00,0.03,39.5915618,116.3020087,30.38,0.000,0.000,30.377,2,14*41
$GNRMC,091322.00,A,3959.15617531,N,11630.20086935,E,0.009,0.000,050322,7.1665,W,D*08
$GPGGA,091322.00,3959.15617531,N,11630.20086935,E,2,14,0.8,40.031,M,-9.654,M,50.0,3356*57
$GPHCD,05,03,2022,091322.20,0.0000,0.00,0.00,0.02,39.5915618,116.3020087,30.38,0.000,0.000,30.378,2,14*4C
$GPHCD,05,03,2022,091322.40,0.0000,0.00,0.00,0.04,39.5915617,116.3020087,30.38,0.000,0.000,30.379,2,14*42
$GPGSV,9,1,27,21,37,048,25,3,27,134,43,19,21,272,30,14,69,311,36*4C
$GPGSV,9,2,27,8,16,079,25,30,33,218,27,1,68,057,22,7,19,195,32*42
$GPGSV,9,3,27,17,43,286,24*4D
$GLGSV,9,4,27,78,34,167,49,82,38,254,37,81,68,339,30,88,26,041,24*64
$GLGSV,9,5,27,79,76,252,58*5B
$GAGSV,9,6,27,12,53,227,49,1,26,141,42,31,81,176,57*63
$GBGSV,9,7,27,135,38,261,30,130,27,059,27,145,60,234,53,129,74,356,19*60
$GBGSV,9,8,27,120,11,116,32,113,26,196,40,104,27,124,*61
$GQGSV,9,9,27,195,72,084,36,199,42,164,41,194,48,147,46*7D
$GPHCD,05,03,2022,091322.60,0.0000,0.00,0.00,0.05,39.5915617,116.3020087,30.38,0.000,0.000,30.379,2,14*41
$GPHCD,05,03,2022,091322.80,0.0000,0.00,0.00,0.04,39.5915617,116.3020087,30.38,0.000,0.000,30.380,2,14*48
$GPHCD,05,03,2022,091323.01,0.0000,0.00,0.00,0.04,39.5915617,116.3020087,30.38,0.000,0.000,30.381,2,14*41
$GNRMC,091323.00,A,3959.15617261,N,11630.20086861,E,0.007,0.000,050322,7.1665,W,D*05
$GPGGA,091323.00,3959.15617261,N,11630.20086861,E,2,14,0.8,40.035,M,-9.654,M,51.0,3356*51
$GPHCD,05,03,2022,091323.20,0.0000,0.00,0.00,0.02,39.5915617,116.3020087,30.38,0.000,0.000,30.382,2,14*47
$GPHCD,05,03,2022,091323.40,0.0000,0.00,0.00,0.05,39.5915617,116.3020087,30.38,0.000,0.000,30.383,2,14*47
$GPGSV,9,1,27,21,37,048,27,3,27,134,43,19,21,272,28,14,69,311,35*44
$GPGSV,9,2,27,8,16,079,25,30,33,218,27,1,68,057,24,7,19,195,32*44
$GPGSV,9,3,27,17,43,286,24*4D
$GLGSV,9,4,27,78,34,167,49,82,38,254,36,81,68,339,29,88,26,041,25*6C
$GLGSV,9,5,27,79,76,252,57*54
$GAGSV,9,6,27,12,53,227,49,1,26,141,41,31,81,176,57*60
$GBGSV,9,7,27,135,38,262,31,130,27,059,28,145,60,234,52,129,74,356,19*6C
$GBGSV,9,8,27,120,11,116,31,113,26,196,40,104,27,124,*62
$GQGSV,9,9,27,195,72,084,36,199,42,164,41,194,48,147,46*7D
$GPHCD,05,03,2022,091323.60,0.0000,0.00,0.00,0.03,39.5915617,116.3020087,30.38,0.000,0.000,30.383,2,14*43
$GPHCD,05,03,2022,091323.80,0.0000,0.00,0.00,0.01,39.5915617,116.3020087,30.38,0.000,0.000,30.384,2,14*48
$GPHCD,05,03,2022,091324.01,0.0000,0.00,0.00,0.02,39.5915617,116.3020087,30.39,0.000,0.000,30.385,2,14*45
$GNRMC,091324.00,A,3959.15616993,N,11630.20086784,E,0.015,301.806,050322,7.1665,W,D*0E
$GPGGA,091324.00,3959.15616993,N,11630.20086784,E,2,14,1.1,40.039,M,-9.654,M,52.0,3356*52
$GPHCD,05,03,2022,091324.20,0.0000,0.00,0.00,0.06,39.5915617,116.3020087,30.39,0.000,0.000,30.386,2,14*41
$GPHCD,05,03,2022,091324.40,0.0000,0.00,0.00,0.07,39.5915617,116.3020087,30.39,0.000,0.000,30.386,2,15*47
$GPGSV,9,1,27,21,37,048,25,3,27,134,44,19,21,272,26,14,69,311,35*4F
$GPGSV,9,2,27,8,16,079,21,30,33,218,23,1,68,057,26,7,19,195,32*46
$GPGSV,9,3,27,17,43,286,26*4F
$GLGSV,9,4,27,78,34,167,49,82,38,254,36,81,68,339,29,88,26,041,23*6A
$GLGSV,9,5,27,79,76,252,57*54
$GAGSV,9,6,27,12,53,227,49,1,26,141,41,31,81,176,57*60
$GBGSV,9,7,27,135,38,262,28,130,27,059,26,145,60,234,52,129,74,356,20*60
$GBGSV,9,8,27,120,11,116,29,113,26,196,40,104,27,124,*6B
$GQGSV,9,9,27,195,72,084,35,199,42,164,41,194,48,147,47*7F
$GPHCD,05,03,2022,091324.60,0.0000,0.00,0.00,0.07,39.5915617,116.3020087,30.39,0.000,0.000,30.387,2,15*44
$GPHCD,05,03,2022,091324.80,0.0000,0.00,0.00,0.05,39.5915617,116.3020087,30.39,0.000,0.000,30.388,2,15*47
$GPHCD,05,03,2022,091325.01,0.0000,0.00,0.00,0.05,39.5915617,116.3020087,30.39,0.000,0.000,30.389,2,14*4F
$GNRMC,091325.00,A,3959.15616745,N,11630.20086708,E,0.007,0.000,050322,7.1665,W,D*01
$GPGGA,091325.00,3959.15616745,N,11630.20086708,E,2,14,1.1,40.043,M,-9.654,M,53.0,3356*5E
$GPHCD,05,03,2022,091325.20,0.0000,0.00,0.00,0.02,39.5915617,116.3020087,30.39,0.000,0.000,30.389,2,14*4B
$GPHCD,05,03,2022,091325.40,0.0000,0.00,0.00,0.02,39.5915617,116.3020087,30.39,0.000,0.000,30.390,2,14*45
$GPGSV,9,1,27,21,37,048,25,3,27,134,43,19,21,272,22,14,69,311,34*4D
$GPGSV,9,2,27,8,16,079,23,30,33,218,25,1,68,057,27,7,19,195,31*40
$GPGSV,9,3,27,17,43,286,28*41
$GLGSV,9,4,27,78,34,167,49,82,38,254,37,81,68,339,30,88,26,041,24*64
$GLGSV,9,5,27,79,76,252,57*54
$GAGSV,9,6,27,12,53,227,49,1,26,141,41,31,81,176,57*60
$GBGSV,9,7,27,135,38,262,29,130,27,059,24,145,60,234,52,129,74,356,19*69
$GBGSV,9,8,27,120,11,116,25,113,26,196,39,104,27,124,28*63
$GQGSV,9,9,27,195,72,084,35,199,42,164,41,194,48,147,47*7F
$GPHCD,05,03,2022,091325.60,0.0000,0.00,0.00,0.02,39.5915617,116.3020087,30.39,0.000,0.000,30.391,2,14*46
$GPHCD,05,03,2022,091325.80,0.0000,0.00,0.00,0.01,39.5915617,116.3020087,30.39,0.000,0.000,30.391,2,15*4A
$GPHCD,05,03,2022,091326.01,0.0000,0.00,0.00,0.02,39.5915617,116.3020087,30.39,0.000,0.000,30.392,2,15*40
$GNRMC,091326.00,A,3959.15616511,N,11630.20086641,E,0.003,0.000,050322,7.1665,W,D*09
$GPGGA,091326.00,3959.15616511,N,11630.20086641,E,2,15,0.9,40.046,M,-9.654,M,54.0,3356*58
$GPHCD,05,03,2022,091326.20,0.0000,0.00,0.00,0.04,39.5915616,116.3020087,30.39,0.000,0.000,30.393,2,15*45
$GPHCD,05,03,2022,091326.40,0.0000,0.00,0.00,0.03,39.5915616,116.3020087,30.39,0.000,0.000,30.393,2,15*44
$GPGSV,9,1,27,21,37,048,24,3,27,134,42,19,21,272,25,14,69,311,34*4A
$GPGSV,9,2,27,8,16,079,26,30,33,218,26,1,68,057,26,7,19,195,30*46
$GPGSV,9,3,27,17,43,286,26*4F
$GLGSV,9,4,27,78,34,167,49,82,38,254,37,81,68,339,32,88,26,041,27*65
$GLGSV,9,5,27,79,76,252,57*54
$GAGSV,9,6,27,12,53,227,48,1,26,141,43,31,81,176,57*63
$GBGSV,9,7,27,135,38,262,33,130,27,059,25,145,60,234,51,129,74,356,21*6B
$GBGSV,9,8,27,120,11,116,29,113,26,196,39,104,27,124,31*67
$GQGSV,9,9,27,195,72,084,37,199,42,164,41,194,48,147,45*7F
$GPHCD,05,03,2022,091326.60,0.0000,0.00,0.00,0.02,39.5915616,116.3020087,30.39,0.000,0.000,30.394,2,15*40
$GPHCD,05,03,2022,091326.80,0.0000,0.00,0.00,0.01,39.5915616,116.3020087,30.39,0.000,0.000,30.395,2,16*4F
$GPHCD,05,03,2022,091327.01,0.0000,0.00,0.00,0.04,39.5915616,116.3020087,30.39,0.000,0.000,30.395,2,16*42
$GNRMC,091327.00,A,3959.15616276,N,11630.20086588,E,0.023,357.747,050322,7.1665,W,D*0F
$GPGGA,091327.00,3959.15616276,N,11630.20086588,E,2,16,0.9,40.050,M,-9.654,M,55.0,3356*5C
$GPHCD,05,03,2022,091327.20,0.0000,0.00,0.00,0.05,39.5915616,116.3020087,30.40,0.000,0.000,30.396,2,16*4D
$GPHCD,05,03,2022,091327.40,0.0000,0.00,0.00,0.04,39.5915616,116.3020087,30.40,0.000,0.000,30.397,2,15*48
$GPGSV,9,1,27,21,37,048,25,3,27,134,42,19,21,272, 9,14,69,311,33*52
$GPGSV,9,2,27,8,16,079,24,30,33,218,27,1,68,057,26,7,19,195,31*44
$GPGSV,9,3,27,17,43,286,25*4C
$GLGSV,9,4,27,78,34,167,49,82,38,254,36,81,67,339,30,88,26,041,26*68
$GLGSV,9,5,27,79,76,252,57*54
$GAGSV,9,6,27,12,53,227,48,1,26,141,43,31,81,176,56*62
$GBGSV,9,7,27,135,38,262,30,130,27,059,24,145,60,234,51,129,74,356,20*68
$GBGSV,9,8,27,120,11,116,29,113,26,196,39,104,27,124,30*66
$GQGSV,9,9,27,195,72,084,35,199,42,164,40,194,48,147,45*7C
$GPHCD,05,03,2022,091327.60,0.0000,0.00,0.00,0.06,39.5915616,116.3020087,30.40,0.000,0.000,30.397,2,15*48
$GPHCD,05,03,2022,091327.80,0.0000,0.00,0.00,0.03,39.5915616,116.3020087,30.40,0.000,0.000,30.398,2,15*4C
$GPHCD,05,03,2022,091328.01,0.0000,0.00,0.00,0.03,39.5915616,116.3020087,30.40,0.000,0.000,30.398,2,16*49
$GNRMC,091328.00,A,3959.15616063,N,11630.20086547,E,0.006,0.000,050322,7.1665,W,D*07
$GPGGA,091328.00,3959.15616063,N,11630.20086547,E,2,16,0.9,40.052,M,-9.654,M,56.0,3356*57
$GPHCD,05,03,2022,091328.20,0.0000,0.00,0.00,0.02,39.5915616,116.3020087,30.40,0.000,0.000,30.399,2,16*4A
$GPHCD,05,03,2022,091328.40,0.0000,0.00,0.00,0.05,39.5915616,116.3020087,30.40,0.000,0.000,30.399,2,16*4B
$GPGSV,9,1,27,21,37,048,26,3,27,134,42,19,21,272,20,14,69,311,34*4D
$GPGSV,9,2,27,8,16,079,21,30,33,218,27,1,68,057,27,7,19,195,30*41
$GPGSV,9,3,27,17,43,286,27*4E
$GLGSV,9,4,27,78,34,167,49,82,38,254,38,81,67,339,30,88,26,041,25*65
$GLGSV,9,5,27,79,76,252,57*54
$GAGSV,9,6,27,12,53,227,48,1,26,141,42,31,81,176,56*63
$GBGSV,9,7,27,135,38,262,28,130,27,059,21,145,60,234,51,129,74,356,17*60
$GBGSV,9,8,27,120,11,116,26,113,26,196,39,104,27,124,31*68
$GQGSV,9,9,27,195,72,084,34,199,42,164,41,194,48,147,46*7F
$GPHCD,05,03,2022,091328.60,0.0000,0.00,0.00,0.01,39.5915616,116.3020087,30.40,0.000,0.000,30.400,2,16*4A
$GPHCD,05,03,2022,091328.80,0.0000,0.00,0.00,0.03,39.5915616,116.3020087,30.40,0.000,0.000,30.400,2,16*46
$GPHCD,05,03,2022,091329.01,0.0000,0.00,0.00,0.07,39.5915616,116.3020087,30.40,0.000,0.000,30.401,2,16*4B
$GNRMC,091329.00,A,3959.15615871,N,11630.20086517,E,0.016,343.711,050322,7.1665,W,D*09
$GPGGA,091329.00,3959.15615871,N,11630.20086517,E,2,16,1.0,40.055,M,-9.654,M,57.0,3356*55
$GPHCD,05,03,2022,091329.20,0.0000,0.00,0.00,0.05,39.5915616,116.3020087,30.40,0.000,0.000,30.401,2,16*4A
$GPHCD,05,03,2022,091329.40,0.0000,0.00,0.00,0.04,39.5915616,116.3020087,30.40,0.000,0.000,30.402,2,16*4E
$GPGSV,9,1,27,21,37,048,24,3,27,134,43,19,21,272,20,14,69,311,35*4F
$GPGSV,9,2,27,8,16,079,23,30,33,218,27,1,68,057,26,7,19,195,29*4A
$GPGSV,9,3,27,17,43,286,27*4E
$GLGSV,9,4,27,78,34,167,49,82,38,254,37,81,67,339,32,88,26,041,26*6B
$GLGSV,9,5,27,79,76,252,57*54
$GAGSV,9,6,27,12,53,227,48,1,26,141,42,31,81,176,56*63
$GBGSV,9,7,27,135,38,262,30,130,27,059,21,145,60,234,52,129,74,356,21*6F
$GBGSV,9,8,27,120,11,116,31,113,26,196,41,104,27,124,30*60
$GQGSV,9,9,27,195,72,084,36,199,42,164,40,194,48,147,46*7C
$GPHCD,05,03,2022,091329.60,0.0000,0.00,0.00,0.03,39.5915616,116.3020087,30.40,0.000,0.000,30.402,2,16*4B
$GPHCD,05,03,2022,091329.80,0.0000,0.00,0.00,0.03,39.5915616,116.3020086,30.40,0.000,0.000,30.403,2,16*45
$GPHCD,05,03,2022,091330.01,0.0000,0.00,0.00,0.03,39.5915616,116.3020086,30.40,0.000,0.000,30.403,2,16*44
$GNRMC,091330.00,A,3959.15615700,N,11630.20086491,E,0.009,0.000,050322,7.1665,W,D*0A
$GPGGA,091330.00,3959.15615700,N,11630.20086491,E,2,15,1.0,40.057,M,-9.654,M,58.0,3356*55
$GPHCD,05,03,2022,091330.20,0.0000,0.00,0.00,0.02,39.5915616,116.3020086,30.40,0.000,0.000,30.403,2,15*45
$GPHCD,05,03,2022,091330.40,0.0000,0.00,0.00,0.02,39.5915616,116.3020086,30.40,0.000,0.000,30.404,2,15*44
$GPGSV,9,1,27,21,37,048,24,3,27,134,42,19,21,272,14,14,69,311,34*48
$GPGSV,9,2,27,8,16,079,24,30,33,218,28,1,68,057,29,7,19,195,29*4D
$GPGSV,9,3,27,17,43,286,26*4F
$GLGSV,9,4,27,78,34,167,48,82,38,254,37,81,67,339,31,88,26,041,29*66
$GLGSV,9,5,27,79,76,252,57*54
$GAGSV,9,6,27,12,53,227,49,1,26,141,41,31,81,176,57*60
$GBGSV,9,7,27,135,38,262,29,130,27,059,20,145,60,234,52,129,74,356,16*62
$GBGSV,9,8,27,120,11,116,32,113,26,196,39,104,27,124,30*6C
$GQGSV,9,9,27,195,72,084,35,199,42,164,40,194,48,147,46*7F
$GPHCD,05,03,2022,091330.60,0.0000,0.00,0.00,0.05,39.5915616,116.3020086,30.40,0.000,0.000,30.404,2,15*41
$GPHCD,05,03,2022,091330.80,0.0000,0.00,0.00,0.06,39.5915616,116.3020086,30.40,0.000,0.000,30.404,2,15*4C
$GPHCD,05,03,2022,091331.01,0.0000,0.00,0.00,0.09,39.5915616,116.3020086,30.40,0.000,0.000,30.405,2,15*4A
$GNRMC,091331.00,A,3959.15615566,N,11630.20086462,E,0.038,356.836,050322,7.1665,W,D*0A
$GPGGA,091331.00,3959.15615566,N,11630.20086462,E,2,16,1.0,40.059,M,-9.654,M,59.0,3356*56
$GPHCD,05,03,2022,091331.20,0.0000,0.00,0.00,0.10,39.5915616,116.3020086,30.40,0.000,0.000,30.405,2,16*42
$GPHCD,05,03,2022,091331.40,0.0000,0.00,0.00,0.11,39.5915616,116.3020086,30.40,0.000,0.000,30.405,2,16*45
$GPGSV,9,1,27,21,37,048,25,3,27,134,43,19,21,272,22,14,69,311,35*4C
$GPGSV,9,2,27,8,16,079,22,30,33,218,30,1,68,056,29,7,19,195,29*43
$GPGSV,9,3,27,17,43,286,28*41
$GLGSV,9,4,27,78,34,167,48,82,38,254,38,81,67,339,32,88,26,041,30*62
$GLGSV,9,5,27,79,76,251,58*58
$GAGSV,9,6,27,12,53,227,49,1,26,141,41,31,81,176,57*60
$GBGSV,9,7,27,135,38,262,30,130,27,059,19,145,60,234,53,129,74,356,19*6E
$GBGSV,9,8,27,120,11,115,31,113,26,196,40,104,27,124,31*63
$GQGSV,9,9,27,195,72,084,35,199,42,164,41,194,48,147,46*7E
$GPHCD,05,03,2022,091331.60,0.0000,0.00,0.00,0.16,39.5915615,116.3020086,30.41,0.000,0.000,30.406,2,16*41
$GPHCD,05,03,2022,091331.80,0.0000,0.00,0.00,0.12,39.5915615,116.3020086,30.41,0.000,0.000,30.406,2,16*4B
$GPHCD,05,03,2022,091332.01,0.0000,0.00,0.00,0.13,39.5915615,116.3020086,30.41,0.000,0.000,30.407,2,16*41
$GNRMC,091332.00,A,3959.15575935,N,11630.20088828,E,0.042,357.209,050322,7.1665,W,A*05
$GPGGA,091332.00,3959.15575935,N,11630.20088828,E,1,27,0.8,40.355,M,-9.654,M,,*40
$GPHCD,05,03,2022,091332.20,0.0000,0.00,0.00,0.11,39.5915576,116.3020089,30.69,0.000,0.000,30.695,1,27*4B
$GPHCD,05,03,2022,091332.40,0.0000,0.00,0.00,0.11,39.5915577,116.3020091,30.49,0.000,0.000,30.494,1,26*45
$GPGSV,9,1,27,21,37,048,22,3,27,134,42,19,21,272,27,14,69,311,33*49
$GPGSV,9,2,27,8,16,079,22,30,33,218,28,1,68,056,29,7,19,195,30*42
$GPGSV,9,3,27,17,43,286,30*48
$GLGSV,9,4,27,78,34,167,48,82,38,254,37,81,67,339,31,88,26,041,31*6F
$GLGSV,9,5,27,79,76,251,58*58
$GAGSV,9,6,27,12,53,227,49,1,26,141,41,31,81,176,57*60
$GBGSV,9,7,27,135,38,262,28,130,27,059,16,145,60,234,52,129,74,356,18*68
$GBGSV,9,8,27,120,11,115,30,113,26,196,39,104,27,124,32*6F
$GQGSV,9,9,27,195,72,084,34,199,42,164,41,194,48,147,46*7F
$GPHCD,05,03,2022,091332.60,0.0000,0.00,0.00,0.11,39.5915578,116.3020093,30.32,0.000,0.000,30.315,1,27*49
$GPHCD,05,03,2022,091332.80,0.0000,0.00,0.00,0.12,39.5915578,116.3020095,30.15,0.000,0.000,30.154,1,27*40
$GPHCD,05,03,2022,091333.01,0.0000,0.00,0.00,0.04,39.5915577,116.3020096,30.01,0.000,0.000,30.015,1,26*43
$GNRMC,091333.00,A,3959.15576642,N,11630.20098667,E,0.014,345.404,050322,7.1665,W,A*07
$GPGGA,091333.00,3959.15576642,N,11630.20098667,E,1,26,0.7,39.528,M,-9.654,M,,*45
$GPHCD,05,03,2022,091333.20,0.0000,0.00,0.00,0.04,39.5915577,116.3020099,29.87,0.000,0.000,29.875,1,26*4F
$GPHCD,05,03,2022,091333.40,0.0000,0.00,0.00,0.03,39.5915576,116.3020101,29.75,0.000,0.000,29.748,1,27*42
$GPGSV,9,1,27,21,37,048,24,3,27,134,43,19,21,272,20,14,69,311,32*48
$GPGSV,9,2,27,8,16,079,24,30,33,218,31,1,68,056,28,7,19,195,29*45
$GPGSV,9,3,27,17,43,286,26*4F
$GLGSV,9,4,27,78,34,167,48,82,38,254,38,81,67,339,31,88,26,041,31*60
$GLGSV,9,5,27,79,76,251,58*58
$GAGSV,9,6,27,12,53,227,49,1,26,141,40,31,81,176,57*61
$GBGSV,9,7,27,135,38,262,27,130,27,059,19,145,60,234,52,129,74,356,18*68
$GBGSV,9,8,27,120,11,115,30,113,26,196,39,104,27,124,32*6F
$GQGSV,9,9,27,195,72,084,35,199,42,164,41,194,48,147,46*7E
$GPHCD,05,03,2022,091333.60,0.0000,0.00,0.00,0.06,39.5915575,116.3020102,29.64,0.000,0.000,29.639,1,27*42
$GPHCD,05,03,2022,091333.80,0.0000,0.00,0.00,0.04,39.5915574,116.3020103,29.54,0.000,0.000,29.541,1,27*41
$GPHCD,05,03,2022,091334.01,0.0000,0.00,0.00,0.07,39.5915573,116.3020105,29.45,0.000,0.000,29.450,1,27*4C
$GNRMC,091334.00,A,3959.15572293,N,11630.20105883,E,0.024,345.116,050322,7.1665,W,A*08
$GPGGA,091334.00,3959.15572293,N,11630.20105883,E,1,27,0.7,39.018,M,-9.654,M,,*48
$GPHCD,05,03,2022,091334.20,0.0000,0.00,0.00,0.07,39.5915572,116.3020106,29.36,0.000,0.000,29.364,1,27*49
$GPHCD,05,03,2022,091334.40,0.0000,0.00,0.00,0.07,39.5915572,116.3020107,29.29,0.000,0.000,29.286,1,27*4D
$GPGSV,9,1,27,21,37,048,23,3,27,134,44,19,21,272,18,14,69,311,31*40
$GPGSV,9,2,27,8,16,079,23,30,33,218,32,1,68,056,29,7,19,195,24*4D
$GPGSV,9,3,27,17,43,286,29*40
$GLGSV,9,4,27,78,34,167,48,82,38,254,39,81,67,339,32,88,26,041,30*63
$GLGSV,9,5,27,79,76,251,57*57
$GAGSV,9,6,27,12,53,227,50,1,26,141,40,31,81,176,57*69
$GBGSV,9,7,27,135,38,262,29,130,27,059,19,145,60,234,52,129,74,356,18*66
$GBGSV,9,8,27,120,11,115,32,113,26,196,38,104,27,124,30*6E
$GQGSV,9,9,27,195,72,084,36,199,42,164,41,194,48,147,46*7D
$GPHCD,05,03,2022,091334.60,0.0000,0.00,0.00,0.04,39.5915571,116.3020108,29.22,0.000,0.000,29.217,1,27*43
$GPHCD,05,03,2022,091334.80,0.0000,0.00,0.00,0.05,39.5915570,116.3020110,29.15,0.000,0.000,29.147,1,27*46
$GPHCD,05,03,2022,091335.01,0.0000,0.00,0.00,0.03,39.5915569,116.3020110,29.08,0.000,0.000,29.080,1,27*46
$GNRMC,091335.00,A,3959.15568262,N,11630.20111213,E,0.009,0.000,050322,7.1665,W,A*01
$GPGGA,091335.00,3959.15568262,N,11630.20111213,E,1,27,0.8,38.674,M,-9.654,M,,*48
$GPHCD,05,03,2022,091335.20,0.0000,0.00,0.00,0.02,39.5915568,116.3020111,29.01,0.000,0.000,29.015,1,26*40
$GPHCD,05,03,2022,091335.40,0.0000,0.00,0.00,0.06,39.5915568,116.3020112,28.95,0.000,0.000,28.952,1,27*47
$GPGSV,9,1,27,21,37,048,19,3,27,134,44,19,21,272,28,14,69,311,31*4A
$GPGSV,9,2,27,8,16,079,19,30,33,218,30,1,68,056,29,7,19,195,29*4B
$GPGSV,9,3,27,17,43,286,29*40
$GLGSV,9,4,27,78,34,167,48,82,38,254,37,81,67,339,33,88,26,041,29*64
$GLGSV,9,5,27,79,76,251,57*57
$GAGSV,9,6,27,12,53,227,49,1,26,141,39,31,81,176,57*6F
$GBGSV,9,7,27,135,38,262,26,130,27,059,20,145,60,234,52,129,74,356,20*68
$GBGSV,9,8,27,120,11,115,31,113,26,196,36,104,27,124,30*63
$GQGSV,9,9,27,195,72,084,36,199,42,164,40,194,48,147,46*7C
$GPHCD,05,03,2022,091335.60,0.0000,0.00,0.00,0.07,39.5915567,116.3020112,28.89,0.000,0.000,28.890,1,27*49
$GPHCD,05,03,2022,091335.80,0.0000,0.00,0.00,0.08,39.5915567,116.3020113,28.83,0.000,0.000,28.826,1,27*4E
$GPHCD,05,03,2022,091336.01,0.0000,0.00,0.00,0.06,39.5915566,116.3020113,28.76,0.000,0.000,28.765,1,27*49
$GNRMC,091336.00,A,3959.15565655,N,11630.20112934,E,0.011,347.176,050322,7.1665,W,A*0B
$GPGGA,091336.00,3959.15565655,N,11630.20112934,E,1,27,0.7,38.366,M,-9.654,M,,*42
$GPHCD,05,03,2022,091336.20,0.0000,0.00,0.00,0.03,39.5915566,116.3020113,28.71,0.000,0.000,28.710,1,27*4A
$GPHCD,05,03,2022,091336.40,0.0000,0.00,0.00,0.04,39.5915565,116.3020113,28.66,0.000,0.000,28.660,1,27*48
$GPGSV,9,1,27,21,37,048,21,3,27,134,44,19,21,272,20,14,69,311,31*49
$GPGSV,9,2,27,8,16,079,23,30,33,218,29,1,68,056,29,7,19,195,28*4B
$GPGSV,9,3,27,17,43,286,29*40
$GLGSV,9,4,27,78,34,167,48,82,38,254,38,81,67,339,33,88,26,041,30*63
$GLGSV,9,5,27,79,76,251,57*57
$GAGSV,9,6,27,12,53,227,49,1,26,141,40,31,81,176,57*61
$GBGSV,9,7,27,135,38,262,20,130,27,059,22,145,60,234,53,129,74,356,20*6D
$GBGSV,9,8,27,120,11,115,30,113,26,196,36,104,27,124,*61
$GQGSV,9,9,27,195,72,084,36,199,42,164,41,194,48,147,45*7E
$GPHCD,05,03,2022,091336.60,0.0000,0.00,0.00,0.06,39.5915565,116.3020113,28.61,0.000,0.000,28.613,1,26*4A
$GPHCD,05,03,2022,091336.80,0.0000,0.00,0.00,0.02,39.5915564,116.3020113,28.57,0.000,0.000,28.565,1,26*46
$GPHCD,05,03,2022,091337.00,0.0000,0.00,0.00,0.03,39.5915564,116.3020113,28.52,0.000,0.000,28.519,1,26*40
$GNRMC,091337.00,A,3959.15563112,N,11630.20113357,E,0.010,354.508,050322,7.1665,W,A*08
$GPGGA,091337.00,3959.15563112,N,11630.20113357,E,1,26,0.8,38.129,M,-9.654,M,,*48
$GPHCD,05,03,2022,091337.20,0.0000,0.00,0.00,0.03,39.5915563,116.3020113,28.47,0.000,0.000,28.469,1,26*47
$GPHCD,05,03,2022,091337.40,0.0000,0.00,0.00,0.06,39.5915563,116.3020113,28.42,0.000,0.000,28.422,1,26*4E
$GPGSV,9,1,27,21,37,048,20,3,27,134,44,19,21,272,18,14,69,311,32*40
$GPGSV,9,2,27,8,16,079,20,30,33,218,28,1,68,056,29,7,19,195,28*49
$GPGSV,9,3,27,17,43,286,29*40
$GLGSV,9,4,27,78,34,167,48,82,38,254,38,81,67,339,32,88,26,041,29*6A
$GLGSV,9,5,27,79,76,251,57*57
$GAGSV,9,6,27,12,53,227,50,1,26,141,40,31,81,176,57*69
$GBGSV,9,7,27,135,38,262,25,130,27,059,18,145,60,234,52,129,74,356,20*60
$GBGSV,9,8,27,120,11,115,31,113,26,196,36,104,27,124,*60
$GQGSV,9,9,27,195,72,084,36,199,42,164,41,194,48,147,45*7E
$GPHCD,05,03,2022,091337.60,0.0000,0.00,0.00,0.03,39.5915563,116.3020113,28.38,0.000,0.000,28.379,1,26*4D
$GPHCD,05,03,2022,091337.80,0.0000,0.00,0.00,0.04,39.5915562,116.3020113,28.34,0.000,0.000,28.338,1,26*4C
$GPHCD,05,03,2022,091338.00,0.0000,0.00,0.00,0.07,39.5915562,116.3020113,28.30,0.000,0.000,28.300,1,25*44
$GNRMC,091338.00,A,3959.15561732,N,11630.20112671,E,0.017,339.684,050322,7.1665,W,A*0A
$GPGGA,091338.00,3959.15561732,N,11630.20112671,E,1,25,0.8,37.916,M,-9.654,M,,*49
$GPHCD,05,03,2022,091338.20,0.0000,0.00,0.00,0.05,39.5915562,116.3020113,28.26,0.000,0.000,28.258,1,26*4C
$GPHCD,05,03,2022,091338.40,0.0000,0.00,0.00,0.06,39.5915562,116.3020112,28.22,0.000,0.000,28.220,1,26*43
$GPGSV,9,1,27,21,37,048,19,3,27,134,43,19,21,272,19,14,69,311,33*4D
$GPGSV,9,2,27,8,16,079,20,30,33,218,28,1,68,056,27,7,19,195,26*49
$GPGSV,9,3,27,17,43,286,29*40
$GLGSV,9,4,27,78,34,167,47,82,38,254,38,81,67,339,32,88,26,041,29*65
$GLGSV,9,5,27,79,76,251,57*57
$GAGSV,9,6,27,12,53,227,50,1,26,141,40,31,81,176,57*69
$GBGSV,9,7,27,135,38,262,28,130,27,059,19,145,60,234,52,129,74,356,21*6D
$GBGSV,9,8,27,120,11,115,32,113,26,196,36,104,27,124,*63
$GQGSV,9,9,27,195,72,084,35,199,42,164,40,194,48,147,45*7C
$GPHCD,05,03,2022,091338.60,0.0000,0.00,0.00,0.07,39.5915561,116.3020112,28.19,0.000,0.000,28.187,1,26*45
$GPHCD,05,03,2022,091338.80,0.0000,0.00,0.00,0.07,39.5915561,116.3020112,28.15,0.000,0.000,28.152,1,26*4F
$GPHCD,05,03,2022,091339.00,0.0000,0.00,0.00,0.07,39.5915561,116.3020112,28.12,0.000,0.000,28.115,1,26*42
$GNRMC,091339.00,A,3959.15560262,N,11630.20111550,E,0.031,358.363,050322,7.1665,W,A*06
$GPGGA,091339.00,3959.15560262,N,11630.20111550,E,1,26,0.8,37.733,M,-9.654,M,,*40
$GPHCD,05,03,2022,091339.20,0.0000,0.00,0.00,0.08,39.5915560,116.3020112,28.08,0.000,0.000,28.075,1,26*42
$GPHCD,05,03,2022,091339.40,0.0000,0.00,0.00,0.08,39.5915560,116.3020111,28.03,0.000,0.000,28.033,1,26*4E
$GPGSV,9,1,27,21,37,048,18,3,27,134,43,19,21,272,17,14,69,311,32*43
$GPGSV,9,2,27,8,16,079,27,30,33,218,30,1,68,056,29,7,19,195,18*44
$GPGSV,9,3,27,17,43,286,27*4E
$GLGSV,9,4,27,78,34,167,46,82,38,254,36,81,67,340,31,88,26,041,31*6E
$GLGSV,9,5,27,79,76,251,56*56
$GAGSV,9,6,27,12,54,227,49,1,26,141,41,31,81,176,57*67
$GBGSV,9,7,27,135,38,262,23,130,27,059,22,145,60,234,52,129,74,356,21*6E
$GBGSV,9,8,27,120,11,115,30,113,26,196,37,104,27,124,*60
$GQGSV,9,9,27,195,72,084,35,199,42,164,40,194,48,147,45*7C
$GPHCD,05,03,2022,091339.60,0.0000,0.00,0.00,0.04,39.5915560,116.3020111,27.99,0.000,0.000,27.994,1,25*44
$GPHCD,05,03,2022,091339.80,0.0000,0.00,0.00,0.05,39.5915559,116.3020110,27.96,0.000,0.000,27.964,1,25*40
$GPHCD,05,03,2022,091340.01,0.0000,0.00,0.00,0.05,39.5915559,116.3020110,27.93,0.000,0.000,27.932,1,26*42
$GNRMC,091340.00,A,3959.15557854,N,11630.20109640,E,0.026,334.449,050322,7.1665,W,A*0B
$GPGGA,091340.00,3959.15557854,N,11630.20109640,E,1,26,0.8,37.559,M,-9.654,M,,*40
$GPHCD,05,03,2022,091340.20,0.0000,0.00,0.00,0.11,39.5915558,116.3020110,27.90,0.000,0.000,27.900,1,26*47
$GPHCD,05,03,2022,091340.40,0.0000,0.00,0.00,0.06,39.5915558,116.3020109,27.87,0.000,0.000,27.867,1,26*49
$GPGSV,9,1,27,21,37,048,22,3,27,134,44,19,21,272,20,14,69,311,32*49
$GPGSV,9,2,27,8,16,079,26,30,33,218,30,1,68,056,30,7,19,195,24*42
$GPGSV,9,3,27,17,43,286,26*4F
$GLGSV,9,4,27,78,34,167,47,82,38,254,37,81,67,340,31,88,26,041,30*6F
$GLGSV,9,5,27,79,76,251,56*56
$GAGSV,9,6,27,12,54,227,48,1,26,141,39,31,81,176,58*66
$GBGSV,9,7,27,135,38,262,22,130,27,059,20,145,60,234,52,129,74,356,24*68
$GBGSV,9,8,27,120,11,115,32,113,26,196,39,104,27,124,*6C
$GQGSV,9,9,27,195,72,084,36,199,42,164,40,194,48,147,45*7F
$GPHCD,05,03,2022,091340.60,0.0000,0.00,0.00,0.10,39.5915557,116.3020109,27.83,0.000,0.000,27.826,1,26*42
$GPHCD,05,03,2022,091340.80,0.0000,0.00,0.00,0.08,39.5915557,116.3020108,27.79,0.000,0.000,27.791,1,26*42
$GPHCD,05,03,2022,091341.01,0.0000,0.00,0.00,0.07,39.5915556,116.3020108,27.76,0.000,0.000,27.761,1,26*44
$GNRMC,091341.00,A,3959.15555527,N,11630.20107607,E,0.027,359.480,050322,7.1665,W,A*03
$GPGGA,091341.00,3959.15555527,N,11630.20107607,E,1,26,0.8,37.389,M,-9.654,M,,*4C
$GPHCD,05,03,2022,091341.20,0.0000,0.00,0.00,0.06,39.5915556,116.3020108,27.73,0.000,0.000,27.732,1,25*46
$GPHCD,05,03,2022,091341.40,0.0000,0.00,0.00,0.05,39.5915555,116.3020107,27.71,0.000,0.000,27.706,1,25*4A
$GPGSV,9,1,27,21,36,048,21,3,27,134,42,19,21,272,16,14,69,311,33*49
$GPGSV,9,2,27,8,16,079,22,30,33,218,31,1,68,056,27,7,19,195,26*43
$GPGSV,9,3,27,17,43,286,27*4E
$GLGSV,9,4,27,78,34,167,47,82,38,254,37,81,67,340,27,88,26,041,31*69
$GLGSV,9,5,27,79,76,251,56*56
$GAGSV,9,6,27,12,54,227,49,1,26,141,41,31,81,176,57*67
$GBGSV,9,7,27,135,38,262,27,130,27,059,21,145,60,234,53,129,74,356,23*6A
$GBGSV,9,8,27,120,11,115,33,113,26,196,39,104,27,124,34*6A
$GQGSV,9,9,27,195,72,084,35,199,42,164,41,194,48,147,43*7B
$GPHCD,05,03,2022,091341.60,0.0000,0.00,0.00,0.06,39.5915555,116.3020108,27.68,0.000,0.000,27.678,1,26*47
$GPHCD,05,03,2022,091341.80,0.0000,0.00,0.00,0.02,39.5915555,116.3020109,27.65,0.000,0.000,27.646,1,27*4D
$GPHCD,05,03,2022,091342.01,0.0000,0.00,0.00,0.03,39.5915555,116.3020109,27.61,0.000,0.000,27.613,1,26*43
$GNRMC,091342.00,A,3959.15554061,N,11630.20109125,E,0.015,329.881,050322,7.1665,W,A*04
$GPGGA,091342.00,3959.15554061,N,11630.20109125,E,1,26,0.8,37.246,M,-9.654,M,,*42
$GPHCD,05,03,2022,091342.20,0.0000,0.00,0.00,0.07,39.5915554,116.3020109,27.59,0.000,0.000,27.592,1,26*44
$GPHCD,05,03,2022,091342.40,0.0000,0.00,0.00,0.06,39.5915553,116.3020109,27.58,0.000,0.000,27.579,1,27*41
$GPGSV,9,1,27,21,36,048,21,3,27,134,43,19,21,272,19,14,69,311,32*46
$GPGSV,9,2,27,8,16,079,23,30,33,218,29,1,68,056,31,7,19,195,26*4C
$GPGSV,9,3,27,17,43,286,27*4E
$GLGSV,9,4,27,78,34,167,47,82,38,254,37,81,67,340,29,88,26,041,29*6E
$GLGSV,9,5,27,79,76,251,56*56
$GAGSV,9,6,27,12,54,227,49,1,26,141,42,31,81,176,57*64
$GBGSV,9,7,27,135,38,262,26,130,27,059,17,145,60,234,52,129,74,356,24*68
$GBGSV,9,8,27,120,11,115,30,113,26,196,37,104,27,124,33*60
$GQGSV,9,9,27,195,72,084,34,199,42,164,40,194,48,147,44*7C
$GPHCD,05,03,2022,091342.60,0.0000,0.00,0.00,0.04,39.5915553,116.3020108,27.56,0.000,0.000,27.564,1,27*42
$GPHCD,05,03,2022,091342.80,0.0000,0.00,0.00,0.02,39.5915552,116.3020108,27.54,0.000,0.000,27.542,1,27*4D
$GPHCD,05,03,2022,091343.00,0.0000,0.00,0.00,0.02,39.5915552,116.3020108,27.53,0.000,0.000,27.525,1,27*42
$GNRMC,091343.00,A,3959.15550859,N,11630.20107452,E,0.007,0.000,050322,7.1665,W,A*03
$GPGGA,091343.00,3959.15550859,N,11630.20107452,E,1,27,0.7,37.163,M,-9.654,M,,*45
$GPHCD,05,03,2022,091343.20,0.0000,0.00,0.00,0.03,39.5915551,116.3020107,27.51,0.000,0.000,27.512,1,27*4B
$GPHCD,05,03,2022,091343.40,0.0000,0.00,0.00,0.03,39.5915550,116.3020107,27.49,0.000,0.000,27.494,1,27*4A
$GPGSV,9,1,27,21,36,048,24,3,27,134,44,19,22,272,25,14,69,311,34*4E
$GPGSV,9,2,27,8,16,079,25,30,33,218,30,1,68,056,30,7,19,195,23*46
$GPGSV,9,3,27,17,43,286,23*4A
$GLGSV,9,4,27,78,34,167,47,82,38,254,36,81,67,340,30,88,26,041,31*6E
$GLGSV,9,5,27,79,76,251,56*56
$GAGSV,9,6,27,12,54,227,49,1,26,141,41,31,81,176,57*67
$GBGSV,9,7,27,135,38,262,25,130,27,059,17,145,60,233,52,129,74,356,25*6D
$GBGSV,9,8,27,120,11,115,30,113,26,196,38,104,27,124,31*6D
$GQGSV,9,9,27,195,72,084,35,199,42,164,41,194,48,147,44*7C
$GPHCD,05,03,2022,091343.60,0.0000,0.00,0.00,0.02,39.5915550,116.3020106,27.48,0.000,0.000,27.482,1,27*4E
$GPHCD,05,03,2022,091343.80,0.0000,0.00,0.00,0.05,39.5915551,116.3020106,27.46,0.000,0.000,27.457,1,27*40
$GPHCD,05,03,2022,091344.00,0.0000,0.00,0.00,0.01,39.5915552,116.3020105,27.44,0.000,0.000,27.440,1,27*4F
$GNRMC,091344.00,A,3959.15552027,N,11630.20104339,E,0.003,0.000,050322,7.1665,W,A*0A
$GPGGA,091344.00,3959.15552027,N,11630.20104339,E,1,26,0.7,37.079,M,-9.654,M,,*43
$GPHCD,05,03,2022,091344.20,0.0000,0.00,0.00,0.01,39.5915552,116.3020104,27.42,0.000,0.000,27.423,1,26*4E
$GPHCD,05,03,2022,091344.40,0.0000,0.00,0.00,0.03,39.5915553,116.3020104,27.41,0.000,0.000,27.413,1,26*4B
$GPGSV,9,1,27,21,36,048,26,3,27,134,45,19,22,272,23,14,69,311,35*4A
$GPGSV,9,2,27,8,16,079,27,30,33,218,27,1,68,056,29,7,19,195,15*4F
$GPGSV,9,3,27,17,43,286,27*4E
$GLGSV,9,4,27,78,34,167,47,82,38,254,37,81,67,340,29,88,26,041,30*66
$GLGSV,9,5,27,79,76,251,56*56
$GAGSV,9,6,27,12,54,227,49,1,26,141,41,31,81,176,57*67
$GBGSV,9,7,27,135,38,262,27,130,27,059,18,145,60,233,52,129,74,356,25*60
$GBGSV,9,8,27,120,11,115,32,113,26,196,37,104,27,124,*62
$GQGSV,9,9,27,195,72,084,35,199,42,164,41,194,48,147,44*7C
$GPHCD,05,03,2022,091344.60,0.0000,0.00,0.00,0.02,39.5915554,116.3020103,27.40,0.000,0.000,27.403,1,26*48
$GPHCD,05,03,2022,091344.80,0.0000,0.00,0.00,0.05,39.5915554,116.3020102,27.39,0.000,0.000,27.390,1,26*43
$GPHCD,05,03,2022,091345.00,0.0000,0.00,0.00,0.02,39.5915555,116.3020102,27.38,0.000,0.000,27.382,1,26*4E
$GNRMC,091345.00,A,3959.15555421,N,11630.20101136,E,0.012,134.540,050322,7.1665,W,A*01
$GPGGA,091345.00,3959.15555421,N,11630.20101136,E,1,26,0.7,37.022,M,-9.654,M,,*41
$GPHCD,05,03,2022,091345.20,0.0000,0.00,0.00,0.01,39.5915556,116.3020101,27.37,0.000,0.000,27.366,1,26*4A
$GPHCD,05,03,2022,091345.40,0.0000,0.00,0.00,0.06,39.5915557,116.3020101,27.34,0.000,0.000,27.341,1,26*4C
$GPGSV,10,1,29,21,36,048,23,3,27,134,45,19,22,272,23,14,69,311,36*7A
$GPGSV,10,2,29,8,16,079,25,30,33,218,29,1,68,056,33,7,19,195,23*7B
$GPGSV,10,3,29,17,43,286,27*78
$GLGSV,10,4,29,78,33,167,46,82,38,254,36,81,67,340,27,88,26,041,31*58
$GLGSV,10,5,29,79,76,251,56*60
$GAGSV,10,6,29,12,54,227,49,1,26,141,41,31,81,176,57*51
$GBGSV,10,7,29,135,38,262,26,130,27,059,20,145,60,233,51,129,74,356,23*59
$GBGSV,10,8,29,136,25,172,41,110,76,314,35,120,11,115,33,113,26,196,38*5E
$GBGSV,10,9,29,104,27,124,*5F
$GQGSV,10,10,29,195,72,084,35,199,42,164,41,194,48,147,45*73
$GPHCD,05,03,2022,091345.60,0.0000,0.00,0.00,0.06,39.5915557,116.3020100,27.31,0.000,0.000,27.309,1,28*48
$GPHCD,05,03,2022,091345.80,0.0000,0.00,0.00,0.07,39.5915564,116.3020099,27.30,0.000,0.000,27.303,1,28*4D
$GPHCD,05,03,2022,091346.01,0.0000,0.00,0.00,0.06,39.5915570,116.3020098,27.30,0.000,0.000,27.299,1,28*40
$GNRMC,091346.00,A,3959.15576194,N,11630.20096679,E,0.006,0.000,050322,7.1665,W,A*09
$GPGGA,091346.00,3959.15576194,N,11630.20096679,E,1,28,0.7,36.949,M,-9.654,M,,*40
$GPHCD,05,03,2022,091346.20,0.0000,0.00,0.00,0.04,39.5915576,116.3020097,27.29,0.000,0.000,27.293,1,28*4A
$GPHCD,05,03,2022,091346.40,0.0000,0.00,0.00,0.08,39.5915582,116.3020096,27.29,0.000,0.000,27.286,1,28*4E
$GPGSV,10,1,29,21,36,048,25,3,27,134,44,19,22,272,28,14,69,311,37*77
$GPGSV,10,2,29,8,16,079,26,30,33,218,29,1,68,056,33,7,19,195,25*7E
$GPGSV,10,3,29,17,43,286,23*7C
$GLGSV,10,4,29,78,33,167,46,82,38,254,35,81,67,340,27,88,26,041,30*5A
$GLGSV,10,5,29,79,76,251,57*61
$GAGSV,10,6,29,12,54,227,49,1,26,141,41,31,81,176,57*51
$GBGSV,10,7,29,135,38,262,26,130,27,059,20,145,60,233,52,129,74,356,25*5C
$GBGSV,10,8,29,136,25,172,41,110,76,314,36,120,11,115,31,113,26,196,39*5E
$GBGSV,10,9,29,104,27,124,*5F
$GQGSV,10,10,29,195,72,084,35,199,42,164,42,194,48,147,44*71
$GPHCD,05,03,2022,091346.60,0.0000,0.00,0.00,0.09,39.5915587,116.3020095,27.28,0.000,0.000,27.275,1,28*46
$GPHCD,05,03,2022,091346.80,0.0000,0.00,0.00,0.06,39.5915591,116.3020094,27.27,0.000,0.000,27.266,1,28*4C
$GPHCD,05,03,2022,091347.01,0.0000,0.00,0.00,0.04,39.5915595,116.3020094,27.25,0.000,0.000,27.253,1,28*46
$GNRMC,091347.00,A,3959.15598719,N,11630.20093030,E,0.025,358.806,050322,7.1665,W,A*04
$GPGGA,091347.00,3959.15598719,N,11630.20093030,E,1,28,0.7,36.893,M,-9.654,M,,*4A
$GPHCD,05,03,2022,091347.20,0.0000,0.00,0.00,0.08,39.5915599,116.3020093,27.23,0.000,0.000,27.235,1,28*44
$GPHCD,05,03,2022,091347.40,0.0000,0.00,0.00,0.06,39.5915602,116.3020093,27.22,0.000,0.000,27.221,1,28*49
$GPGSV,10,1,29,21,36,048,28,3,27,134,45,19,22,272,26,14,69,311,36*74
$GPGSV,10,2,29,8,16,079,28,30,33,218,29,1,68,056,32,7,19,195,20*74
$GPGSV,10,3,29,17,43,286,25*7A
$GLGSV,10,4,29,78,33,167,47,82,38,254,36,81,67,340,24,88,26,041,28*52
$GLGSV,10,5,29,79,76,251,56*60
$GAGSV,10,6,29,12,54,227,49,1,26,141,41,31,81,176,57*51
$GBGSV,10,7,29,135,38,262,26,130,27,059,23,145,60,233,52,129,74,356,25*5F
$GBGSV,10,8,29,136,25,172,38,110,76,314,36,120,11,115,32,113,26,196,39*53
$GBGSV,10,9,29,104,27,124,*5F
$GQGSV,10,10,29,195,72,084,34,199,42,164,42,194,48,147,45*71
$GPHCD,05,03,2022,091347.60,0.0000,0.00,0.00,0.09,39.5915606,116.3020092,27.20,0.000,0.000,27.202,1,28*42
$GPHCD,05,03,2022,091347.80,0.0000,0.00,0.00,0.04,39.5915610,116.3020092,27.19,0.000,0.000,27.185,1,29*41
$GPHCD,05,03,2022,091348.01,0.0000,0.00,0.00,0.03,39.5915612,116.3020092,27.17,0.000,0.000,27.174,1,29*42
$GNRMC,091348.00,A,3959.15615175,N,11630.20092460,E,0.012,313.495,050322,7.1665,W,A*0C
$GPGGA,091348.00,3959.15615175,N,11630.20092460,E,1,29,0.6,36.816,M,-9.654,M,,*42
$GPHCD,05,03,2022,091348.20,0.0000,0.00,0.00,0.03,39.5915615,116.3020092,27.16,0.000,0.000,27.163,1,29*41
$GPHCD,05,03,2022,091348.40,0.0000,0.00,0.00,0.02,39.5915618,116.3020092,27.15,0.000,0.000,27.148,1,29*41
$GPGSV,10,1,29,21,36,048,26,3,27,134,44,19,22,272,25,14,69,311,35*7B
$GPGSV,10,2,29,8,16,079,27,30,33,218,28,1,68,056,32,7,19,195,27*7D
$GPGSV,10,3,29,17,43,286,25*7A
$GLGSV,10,4,29,78,33,167,48,82,38,254,37,81,67,340,23,88,26,041,29*5A
$GLGSV,10,5,29,79,76,251,56*60
$GAGSV,10,6,29,12,54,227,49,1,26,141,40,31,81,176,57*50
$GBGSV,10,7,29,135,38,262,26,130,27,059,25,145,60,233,50,129,74,356,26*58
$GBGSV,10,8,29,136,25,172,41,110,76,314,36,120,11,115,32,113,26,196,39*5D
$GBGSV,10,9,29,104,27,124,32*5E
$GQGSV,10,10,29,195,72,084,34,199,42,164,41,194,48,147,45*72
$GPHCD,05,03,2022,091348.60,0.0000,0.00,0.00,0.05,39.5915620,116.3020093,27.13,0.000,0.000,27.132,1,29*45
$GPHCD,05,03,2022,091348.80,0.0000,0.00,0.00,0.03,39.5915621,116.3020093,27.11,0.000,0.000,27.111,1,29*4F
$GPHCD,05,03,2022,091349.00,0.0000,0.00,0.00,0.07,39.5915622,116.3020093,27.10,0.000,0.000,27.096,1,29*4E
$GNRMC,091349.00,A,3959.15623311,N,11630.20093565,E,0.009,0.000,050322,7.1665,W,A*0E
$GPGGA,091349.00,3959.15623311,N,11630.20093565,E,1,28,0.6,36.733,M,-9.654,M,,*4A
$GPHCD,05,03,2022,091349.20,0.0000,0.00,0.00,0.02,39.5915623,116.3020094,27.08,0.000,0.000,27.079,1,28*46
$GPHCD,05,03,2022,091349.40,0.0000,0.00,0.00,0.01,39.5915624,116.3020094,27.07,0.000,0.000,27.067,1,28*44
$GPGSV,10,1,29,21,36,048,28,3,27,134,43,19,22,272,27,14,69,311,35*70
$GPGSV,10,2,29,8,16,079,26,30,33,218,27,1,68,056,33,7,19,195,27*72
$GPGSV,10,3,29,17,43,286,22*7D
$GLGSV,10,4,29,78,33,167,47,82,38,254,36,81,67,340,25,88,26,041,26*5D
$GLGSV,10,5,29,79,76,251,55*63
$GAGSV,10,6,29,12,54,227,49,1,26,141,40,31,81,176,57*50
$GBGSV,10,7,29,135,38,262,28,130,27,059,24,145,60,233,50,129,74,356,26*57
$GBGSV,10,8,29,136,25,172,43,110,76,314,37,120,11,115,33,113,26,196,39*5F
$GBGSV,10,9,29,104,27,124,*5F
$GQGSV,10,10,29,195,72,084,35,199,42,164,41,194,48,147,45*73
$GPHCD,05,03,2022,091349.60,0.0000,0.00,0.00,0.03,39.5915626,116.3020094,27.05,0.000,0.000,27.053,1,28*43
$GPHCD,05,03,2022,091349.80,0.0000,0.00,0.00,0.01,39.5915628,116.3020094,27.04,0.000,0.000,27.043,1,28*41
$GPHCD,05,03,2022,091350.01,0.0000,0.00,0.00,0.03,39.5915630,116.3020094,27.04,0.000,0.000,27.037,1,28*48
$GNRMC,091350.00,A,3959.15630600,N,11630.20093120,E,0.007,0.000,050322,7.1665,W,A*0A
$GPGGA,091350.00,3959.15630600,N,11630.20093120,E,1,29,0.7,36.673,M,-9.654,M,,*45
$GPHCD,05,03,2022,091350.20,0.0000,0.00,0.00,0.02,39.5915631,116.3020093,27.02,0.000,0.000,27.021,1,29*4C
$GPHCD,05,03,2022,091350.40,0.0000,0.00,0.00,0.02,39.5915631,116.3020092,27.00,0.000,0.000,27.003,1,29*49
$GPGSV,10,1,29,21,36,048,28,3,27,134,43,19,22,272,26,14,69,311,34*70
$GPGSV,10,2,29,8,16,079,27,30,33,218,27,1,68,056,30,7,19,195,29*7E
$GPGSV,10,3,29,17,43,286,22*7D
$GLGSV,10,4,29,78,33,167,46,82,38,254,36,81,67,340,25,88,26,041,24*5E
$GLGSV,10,5,29,79,76,251,55*63
$GAGSV,10,6,29,12,54,227,49,1,26,141,40,31,81,176,56*51
$GBGSV,10,7,29,135,38,262,26,130,27,059,22,145,60,233,51,129,74,356,25*5D
$GBGSV,10,8,29,136,25,172,43,110,76,314,36,120,11,115,32,113,26,196,39*5F
$GBGSV,10,9,29,104,27,124,34*58
$GQGSV,10,10,29,195,72,084,35,199,42,164,41,194,48,147,45*73
$GPHCD,05,03,2022,091350.60,0.0000,0.00,0.00,0.05,39.5915633,116.3020091,26.98,0.000,0.000,26.979,1,29*48
$GPHCD,05,03,2022,091350.80,0.0000,0.00,0.00,0.07,39.5915634,116.3020091,26.96,0.000,0.000,26.960,1,29*45
$GPHCD,05,03,2022,091351.01,0.0000,0.00,0.00,0.05,39.5915635,116.3020090,26.93,0.000,0.000,26.932,1,29*4D
$GNRMC,091351.00,A,3959.15636231,N,11630.20089475,E,0.030,354.569,050322,7.1665,W,A*09
$GPGGA,091351.00,3959.15636231,N,11630.20089475,E,1,29,0.7,36.555,M,-9.654,M,,*4D
$GPHCD,05,03,2022,091351.20,0.0000,0.00,0.00,0.06,39.5915636,116.3020089,26.90,0.000,0.000,26.902,1,29*46
$GPHCD,05,03,2022,091351.40,0.0000,0.00,0.00,0.06,39.5915638,116.3020088,26.88,0.000,0.000,26.878,1,29*4A
$GPGSV,10,1,29,21,36,048,26,3,27,134,44,19,22,272,29,14,69,311,33*71
$GPGSV,10,2,29,8,16,079,25,30,33,218,29,1,68,056,30,7,19,195,30*7A
$GPGSV,10,3,29,17,43,286,20*7F
$GLGSV,10,4,29,78,33,167,46,82,38,254,36,81,67,340,26,88,26,041,26*5F
$GLGSV,10,5,29,79,76,251,54*62
$GAGSV,10,6,29,12,54,227,49,1,26,141,40,31,81,176,55*52
$GBGSV,10,7,29,135,38,262,28,130,27,059,19,145,60,233,50,129,74,356,25*5A
$GBGSV,10,8,29,136,25,172,43,110,76,314,36,120,11,115,33,113,26,196,39*5E
$GBGSV,10,9,29,104,27,124,34*58
$GQGSV,10,10,29,195,72,084,35,199,42,164,40,194,48,147,45*72
$GPHCD,05,03,2022,091351.60,0.0000,0.00,0.00,0.01,39.5915638,116.3020088,26.88,0.000,0.000,26.879,1,29*4E
$GPHCD,05,03,2022,091351.80,0.0000,0.00,0.00,0.04,39.5915638,116.3020088,26.87,0.000,0.000,26.867,1,29*45
$GPHCD,05,03,2022,091352.01,0.0000,0.00,0.00,0.01,39.5915639,116.3020087,26.86,0.000,0.000,26.863,1,29*41
$GNRMC,091352.00,A,3959.15639961,N,11630.20086512,E,0.003,0.000,050322,7.1665,W,A*0C
$GPGGA,091352.00,3959.15639961,N,11630.20086512,E,1,29,0.8,36.495,M,-9.654,M,,*42
$GPHCD,05,03,2022,091352.20,0.0000,0.00,0.00,0.03,39.5915640,116.3020087,26.84,0.000,0.000,26.844,1,29*49
$GPHCD,05,03,2022,091352.40,0.0000,0.00,0.00,0.01,39.5915640,116.3020085,26.85,0.000,0.000,26.851,1,29*4A
$GPGSV,10,1,29,21,36,048,27,3,27,134,43,19,22,272,32,14,69,311,33*7D
$GPGSV,10,2,29,8,16,079,25,30,33,218,29,1,68,056,29,7,19,195,30*72
$GPGSV,10,3,29,17,43,286,22*7D
$GLGSV,10,4,29,78,33,167,47,82,38,254,35,81,67,340,26,88,26,041,21*5A
$GLGSV,10,5,29,79,76,251,54*62
$GAGSV,10,6,29,12,54,227,48,1,26,141,40,31,81,176,55*53
$GBGSV,10,7,29,135,38,262,29,130,27,059,21,145,60,233,49,129,74,356,27*5A
$GBGSV,10,8,29,136,25,172,42,110,76,314,36,120,11,115,31,113,26,196,41*52
$GBGSV,10,9,29,104,27,124,34*58
$GQGSV,10,10,29,195,72,084,36,199,42,164,41,194,48,147,45*70
$GPHCD,05,03,2022,091352.60,0.0000,0.00,0.00,0.04,39.5915641,116.3020085,26.84,0.000,0.000,26.836,1,28*4D
$GPHCD,05,03,2022,091352.80,0.0000,0.00,0.00,0.05,39.5915642,116.3020084,26.81,0.000,0.000,26.809,1,29*48
$GPHCD,05,03,2022,091353.01,0.0000,0.00,0.00,0.04,39.5915644,116.3020084,26.78,0.000,0.000,26.784,1,28*4A
$GNRMC,091353.00,A,3959.15644316,N,11630.20083243,E,0.008,0.000,050322,7.1665,W,A*00
$GPGGA,091353.00,3959.15644316,N,11630.20083243,E,1,28,0.7,36.418,M,-9.654,M,,*4E
$GPHCD,05,03,2022,091353.20,0.0000,0.00,0.00,0.00,39.5915645,116.3020083,26.76,0.000,0.000,26.760,1,28*4F
$GPHCD,05,03,2022,091353.40,0.0000,0.00,0.00,0.02,39.5915645,116.3020083,26.75,0.000,0.000,26.748,1,28*42
$GPGSV,10,1,29,21,36,048,27,3,27,134,44,19,22,272,30,14,69,311,32*79
$GPGSV,10,2,29,8,16,079,24,30,33,218,29,1,68,056,30,7,19,195,29*73
$GPGSV,10,3,29,17,43,286,19*75
$GLGSV,10,4,29,78,33,167,47,82,38,254,36,81,67,340,27,88,26,041, 4*4F
$GLGSV,10,5,29,79,76,251,54*62
$GAGSV,10,6,29,12,54,227,48,1,26,141,41,31,81,176,55*52
$GBGSV,10,7,29,135,38,262,28,130,27,059,23,145,60,233,49,129,74,356,23*5D
$GBGSV,10,8,29,136,25,172,41,110,76,314,36,120,11,115,32,113,26,196,40*53
$GBGSV,10,9,29,104,27,124,34*58
$GQGSV,10,10,29,195,72,084,36,199,42,164,41,194,48,147,45*70
$GPHCD,05,03,2022,091353.60,0.0000,0.00,0.00,0.05,39.5915646,116.3020083,26.73,0.000,0.000,26.727,1,28*4B
$GPHCD,05,03,2022,091353.80,0.0000,0.00,0.00,0.05,39.5915647,116.3020082,26.71,0.000,0.000,26.714,1,28*47
$GPHCD,05,03,2022,091354.01,0.0000,0.00,0.00,0.02,39.5915648,116.3020083,26.71,0.000,0.000,26.712,1,28*46
$GNRMC,091354.00,A,3959.15648373,N,11630.20083328,E,0.008,0.000,050322,7.1665,W,A*04
$GPGGA,091354.00,3959.15648373,N,11630.20083328,E,1,28,0.7,36.363,M,-9.654,M,,*41
$GPHCD,05,03,2022,091354.20,0.0000,0.00,0.00,0.02,39.5915648,116.3020083,26.71,0.000,0.000,26.710,1,28*47
$GPHCD,05,03,2022,091354.40,0.0000,0.00,0.00,0.02,39.5915649,116.3020083,26.71,0.000,0.000,26.709,1,28*48
$GPGSV,10,1,29,21,36,048,25,3,27,134,43,19,22,272,32,14,69,311,32*7E
